{"timestamp": "2025-06-01T16:08:43.691617", "stops": [{"route_id": "152", "route_code": 3, "stop_name": "Addison & Halsted", "stop_id": 17298, "stop_lat": 41.947298, "stop_lon": -87.649178, "heading_degrees": 90, "transfer_to_route_id": "8-North^;8-South^", "stop_type": "bus", "parent_stop_id": 17298, "route": "152"}, {"route_id": "152", "route_code": 3, "stop_name": "Addison & Hamlin", "stop_id": 12513, "stop_lat": 41.946408, "stop_lon": -87.72258, "heading_degrees": 84, "transfer_to_route_id": NaN, "stop_type": "bus", "parent_stop_id": 12513, "route": "152"}, {"route_id": "152", "route_code": 3, "stop_name": "Addison & Harlem", "stop_id": 17358, "stop_lat": 41.94524, "stop_lon": -87.806693, "heading_degrees": 102, "transfer_to_route_id": "90-North^;90-South^", "stop_type": "bus", "parent_stop_id": 17358, "route": "152"}, {"route_id": "152", "route_code": 3, "stop_name": "Addison & Hoyne", "stop_id": 12530, "stop_lat": 41.946782, "stop_lon": -87.68108, "heading_degrees": 89, "transfer_to_route_id": NaN, "stop_type": "bus", "parent_stop_id": 12530, "route": "152"}, {"route_id": "152", "route_code": 3, "stop_name": "Addison & Karlov", "stop_id": 12510, "stop_lat": 41.946313, "stop_lon": -87.729287, "heading_degrees": 71, "transfer_to_route_id": NaN, "stop_type": "bus", "parent_stop_id": 12510, "route": "152"}, {"route_id": "152", "route_code": 3, "stop_name": "Addison & Kedzie", "stop_id": 12519, "stop_lat": 41.946647, "stop_lon": -87.7074, "heading_degrees": 90, "transfer_to_route_id": NaN, "stop_type": "bus", "parent_stop_id": 12519, "route": "152"}, {"route_id": "152", "route_code": 3, "stop_name": "Addison & Keeler", "stop_id": 12509, "stop_lat": 41.946267, "stop_lon": -87.732387, "heading_degrees": 89, "transfer_to_route_id": NaN, "stop_type": "bus", "parent_stop_id": 12509, "route": "152"}, {"route_id": "152", "route_code": 3, "stop_name": "Addison & Kenton", "stop_id": 12505, "stop_lat": 41.946137, "stop_lon": -87.741738, "heading_degrees": 90, "transfer_to_route_id": NaN, "stop_type": "bus", "parent_stop_id": 12505, "route": "152"}, {"route_id": "152", "route_code": 3, "stop_name": "Addison & Kilbourn", "stop_id": 15773, "stop_lat": 41.946169, "stop_lon": -87.739389, "heading_degrees": 90, "transfer_to_route_id": NaN, "stop_type": "bus", "parent_stop_id": 15773, "route": "152"}, {"route_id": "152", "route_code": 3, "stop_name": "Addison & Kilpatrick", "stop_id": 12504, "stop_lat": 41.946103, "stop_lon": -87.744128, "heading_degrees": 90, "transfer_to_route_id": NaN, "stop_type": "bus", "parent_stop_id": 12504, "route": "152"}, {"route_id": "152", "route_code": 3, "stop_name": "Addison & Kimball", "stop_id": 17832, "stop_lat": 41.946543, "stop_lon": -87.71228, "heading_degrees": 88, "transfer_to_route_id": "82-North^;82-South^", "stop_type": "bus", "parent_stop_id": 17832, "route": "152"}, {"route_id": "152", "route_code": 3, "stop_name": "Addison & Kostner", "stop_id": 12507, "stop_lat": 41.946194, "stop_lon": -87.737349, "heading_degrees": 90, "transfer_to_route_id": NaN, "stop_type": "bus", "parent_stop_id": 12507, "route": "152"}, {"route_id": "152", "route_code": 3, "stop_name": "Addison & Lake Shore", "stop_id": 12548, "stop_lat": 41.948475, "stop_lon": -87.64406, "heading_degrees": 68, "transfer_to_route_id": NaN, "stop_type": "bus", "parent_stop_id": 12548, "route": "152"}, {"route_id": "152", "route_code": 3, "stop_name": "Addison & Lakewood", "stop_id": 12539, "stop_lat": 41.947108, "stop_lon": -87.661767, "heading_degrees": 87, "transfer_to_route_id": NaN, "stop_type": "bus", "parent_stop_id": 12539, "route": "152"}, {"route_id": "152", "route_code": 3, "stop_name": "Addison & Lamon", "stop_id": 12502, "stop_lat": 41.94606, "stop_lon": -87.749505, "heading_degrees": 90, "transfer_to_route_id": NaN, "stop_type": "bus", "parent_stop_id": 12502, "route": "152"}, {"route_id": "152", "route_code": 3, "stop_name": "Addison & Laramie", "stop_id": 12499, "stop_lat": 41.945948, "stop_lon": -87.757023, "heading_degrees": 85, "transfer_to_route_id": NaN, "stop_type": "bus", "parent_stop_id": 12499, "route": "152"}, {"route_id": "152", "route_code": 3, "stop_name": "Addison & Lavergne", "stop_id": 12501, "stop_lat": 41.946012, "stop_lon": -87.75216, "heading_degrees": 87, "transfer_to_route_id": NaN, "stop_type": "bus", "parent_stop_id": 12501, "route": "152"}, {"route_id": "152", "route_code": 3, "stop_name": "Addison & Lawndale/Avondale", "stop_id": 12514, "stop_lat": 41.946433, "stop_lon": -87.720132, "heading_degrees": 87, "transfer_to_route_id": NaN, "stop_type": "bus", "parent_stop_id": 12514, "route": "152"}, {"route_id": "152", "route_code": 3, "stop_name": "Addison & Leavitt", "stop_id": 12529, "stop_lat": 41.946782, "stop_lon": -87.683512, "heading_degrees": 89, "transfer_to_route_id": NaN, "stop_type": "bus", "parent_stop_id": 12529, "route": "152"}, {"route_id": "152", "route_code": 3, "stop_name": "Addison & Leclaire", "stop_id": 12500, "stop_lat": 41.945988, "stop_lon": -87.754322, "heading_degrees": 81, "transfer_to_route_id": NaN, "stop_type": "bus", "parent_stop_id": 12500, "route": "152"}, {"route_id": "152", "route_code": 3, "stop_name": "Addison & Lincoln", "stop_id": 12534, "stop_lat": 41.946942, "stop_lon": -87.67318, "heading_degrees": 100, "transfer_to_route_id": NaN, "stop_type": "bus", "parent_stop_id": 12534, "route": "152"}, {"route_id": "152", "route_code": 3, "stop_name": "Addison & Linder", "stop_id": 12496, "stop_lat": 41.945877, "stop_lon": -87.76443, "heading_degrees": 90, "transfer_to_route_id": NaN, "stop_type": "bus", "parent_stop_id": 12496, "route": "152"}, {"route_id": "152", "route_code": 3, "stop_name": "Addison & Lockwood", "stop_id": 12498, "stop_lat": 41.945932, "stop_lon": -87.759455, "heading_degrees": 83, "transfer_to_route_id": NaN, "stop_type": "bus", "parent_stop_id": 12498, "route": "152"}, {"route_id": "152", "route_code": 3, "stop_name": "Addison & Long", "stop_id": 12497, "stop_lat": 41.945892, "stop_lon": -87.76195, "heading_degrees": 90, "transfer_to_route_id": NaN, "stop_type": "bus", "parent_stop_id": 12497, "route": "152"}, {"route_id": "152", "route_code": 3, "stop_name": "Addison & Major", "stop_id": 12494, "stop_lat": 41.945813, "stop_lon": -87.769373, "heading_degrees": 90, "transfer_to_route_id": NaN, "stop_type": "bus", "parent_stop_id": 12494, "route": "152"}, {"route_id": "152", "route_code": 3, "stop_name": "Addison & Marmora", "stop_id": 12492, "stop_lat": 41.945765, "stop_lon": -87.774173, "heading_degrees": 83, "transfer_to_route_id": NaN, "stop_type": "bus", "parent_stop_id": 12492, "route": "152"}, {"route_id": "152", "route_code": 3, "stop_name": "Addison & Meade", "stop_id": 12490, "stop_lat": 41.945733, "stop_lon": -87.779148, "heading_degrees": 78, "transfer_to_route_id": NaN, "stop_type": "bus", "parent_stop_id": 12490, "route": "152"}, {"route_id": "152", "route_code": 3, "stop_name": "Addison & Melvina", "stop_id": 12489, "stop_lat": 41.945685, "stop_lon": -87.781533, "heading_degrees": 75, "transfer_to_route_id": NaN, "stop_type": "bus", "parent_stop_id": 12489, "route": "152"}, {"route_id": "152", "route_code": 3, "stop_name": "Addison & Menard", "stop_id": 12493, "stop_lat": 41.945797, "stop_lon": -87.771727, "heading_degrees": 87, "transfer_to_route_id": NaN, "stop_type": "bus", "parent_stop_id": 12493, "route": "152"}, {"route_id": "152", "route_code": 3, "stop_name": "Addison & Milwaukee", "stop_id": 12508, "stop_lat": 41.946233, "stop_lon": -87.734993, "heading_degrees": 89, "transfer_to_route_id": NaN, "stop_type": "bus", "parent_stop_id": 12508, "route": "152"}, {"route_id": "152", "route_code": 3, "stop_name": "Addison & Mobile", "stop_id": 12488, "stop_lat": 41.945662, "stop_lon": -87.783948, "heading_degrees": 83, "transfer_to_route_id": NaN, "stop_type": "bus", "parent_stop_id": 12488, "route": "152"}, {"route_id": "152", "route_code": 3, "stop_name": "Addison & Narragansett", "stop_id": 15698, "stop_lat": 41.945598, "stop_lon": -87.785857, "heading_degrees": 79, "transfer_to_route_id": "86-North^;86-South^", "stop_type": "bus", "parent_stop_id": 15698, "route": "152"}, {"route_id": "152", "route_code": 3, "stop_name": "Addison & Neenah", "stop_id": 12485, "stop_lat": 41.945535, "stop_lon": -87.790212, "heading_degrees": 90, "transfer_to_route_id": NaN, "stop_type": "bus", "parent_stop_id": 12485, "route": "152"}, {"route_id": "152", "route_code": 3, "stop_name": "Addison & New England", "stop_id": 12481, "stop_lat": 41.9454, "stop_lon": -87.798588, "heading_degrees": 97, "transfer_to_route_id": NaN, "stop_type": "bus", "parent_stop_id": 12481, "route": "152"}, {"route_id": "152", "route_code": 3, "stop_name": "Addison & Nordica", "stop_id": 12479, "stop_lat": 41.945288, "stop_lon": -87.803483, "heading_degrees": 87, "transfer_to_route_id": NaN, "stop_type": "bus", "parent_stop_id": 12479, "route": "152"}, {"route_id": "152", "route_code": 3, "stop_name": "Addison & Normandy", "stop_id": 12483, "stop_lat": 41.945512, "stop_lon": -87.793692, "heading_degrees": 100, "transfer_to_route_id": NaN, "stop_type": "bus", "parent_stop_id": 12483, "route": "152"}, {"route_id": "152", "route_code": 3, "stop_name": "Addison & Oak Park", "stop_id": 17145, "stop_lat": 41.945415, "stop_lon": -87.795743, "heading_degrees": 85, "transfer_to_route_id": NaN, "stop_type": "bus", "parent_stop_id": 17145, "route": "152"}, {"route_id": "152", "route_code": 3, "stop_name": "Addison & Oakley", "stop_id": 18651, "stop_lat": 41.946709, "stop_lon": -87.685359, "heading_degrees": 90, "transfer_to_route_id": NaN, "stop_type": "bus", "parent_stop_id": 18651, "route": "152"}, {"route_id": "152", "route_code": 3, "stop_name": "Addison & Octavia", "stop_id": 12476, "stop_lat": 41.945168, "stop_lon": -87.809587, "heading_degrees": 89, "transfer_to_route_id": NaN, "stop_type": "bus", "parent_stop_id": 12476, "route": "152"}, {"route_id": "152", "route_code": 3, "stop_name": "Addison & Oketo", "stop_id": 12475, "stop_lat": 41.94513, "stop_lon": -87.812018, "heading_degrees": 89, "transfer_to_route_id": NaN, "stop_type": "bus", "parent_stop_id": 12475, "route": "152"}, {"route_id": "152", "route_code": 3, "stop_name": "Addison & Olcott", "stop_id": 12474, "stop_lat": 41.94509, "stop_lon": -87.814513, "heading_degrees": 89, "transfer_to_route_id": NaN, "stop_type": "bus", "parent_stop_id": 12474, "route": "152"}, {"route_id": "152", "route_code": 3, "stop_name": "Addison & Orange", "stop_id": 12470, "stop_lat": 41.94505, "stop_lon": -87.824353, "heading_degrees": 83, "transfer_to_route_id": NaN, "stop_type": "bus", "parent_stop_id": 12470, "route": "152"}, {"route_id": "152", "route_code": 3, "stop_name": "Addison & Oriole", "stop_id": 12473, "stop_lat": 41.945177, "stop_lon": -87.816947, "heading_degrees": 96, "transfer_to_route_id": NaN, "stop_type": "bus", "parent_stop_id": 12473, "route": "152"}, {"route_id": "152", "route_code": 3, "stop_name": "Addison & Overhill", "stop_id": 12472, "stop_lat": 41.945208, "stop_lon": -87.81941, "heading_degrees": 80, "transfer_to_route_id": NaN, "stop_type": "bus", "parent_stop_id": 12472, "route": "152"}, {"route_id": "152", "route_code": 3, "stop_name": "Addison & Ozanam", "stop_id": 12471, "stop_lat": 41.945137, "stop_lon": -87.821857, "heading_degrees": 82, "transfer_to_route_id": NaN, "stop_type": "bus", "parent_stop_id": 12471, "route": "152"}, {"route_id": "152", "route_code": 3, "stop_name": "Addison & Panama", "stop_id": 15960, "stop_lat": 41.944947, "stop_lon": -87.828692, "heading_degrees": 84, "transfer_to_route_id": NaN, "stop_type": "bus", "parent_stop_id": 15960, "route": "152"}, {"route_id": "152", "route_code": 3, "stop_name": "Addison & Paris", "stop_id": 12466, "stop_lat": 41.944892, "stop_lon": -87.830503, "heading_degrees": 90, "transfer_to_route_id": NaN, "stop_type": "bus", "parent_stop_id": 12466, "route": "152"}, {"route_id": "152", "route_code": 3, "stop_name": "Addison & Paulina", "stop_id": 12535, "stop_lat": 41.946925, "stop_lon": -87.671432, "heading_degrees": 84, "transfer_to_route_id": NaN, "stop_type": "bus", "parent_stop_id": 12535, "route": "152"}, {"route_id": "152", "route_code": 3, "stop_name": "Addison & Pine Grove", "stop_id": 12547, "stop_lat": 41.947792, "stop_lon": -87.645745, "heading_degrees": 47, "transfer_to_route_id": NaN, "stop_type": "bus", "parent_stop_id": 12547, "route": "152"}, {"route_id": "152", "route_code": 3, "stop_name": "Addison & Pittsburgh", "stop_id": 12464, "stop_lat": 41.944788, "stop_lon": -87.832952, "heading_degrees": 88, "transfer_to_route_id": NaN, "stop_type": "bus", "parent_stop_id": 12464, "route": "152"}, {"route_id": "152", "route_code": 3, "stop_name": "Addison & Pulaski", "stop_id": 16174, "stop_lat": 41.946345, "stop_lon": -87.727093, "heading_degrees": 85, "transfer_to_route_id": "53-North^;53-South^", "stop_type": "bus", "parent_stop_id": 16174, "route": "152"}, {"route_id": "152", "route_code": 3, "stop_name": "Addison & Racine", "stop_id": 14903, "stop_lat": 41.947163, "stop_lon": -87.6587, "heading_degrees": 87, "transfer_to_route_id": NaN, "stop_type": "bus", "parent_stop_id": 14903, "route": "152"}, {"route_id": "152", "route_code": 3, "stop_name": "Addison & Rockwell", "stop_id": 12524, "stop_lat": 41.946718, "stop_lon": -87.694272, "heading_degrees": 90, "transfer_to_route_id": "94-South^", "stop_type": "bus", "parent_stop_id": 12524, "route": "152"}, {"route_id": "152", "route_code": 3, "stop_name": "Addison & Sacramento", "stop_id": 12521, "stop_lat": 41.94664, "stop_lon": -87.703062, "heading_degrees": 88, "transfer_to_route_id": NaN, "stop_type": "bus", "parent_stop_id": 12521, "route": "152"}, {"route_id": "152", "route_code": 3, "stop_name": "Addison & Sayre", "stop_id": 12480, "stop_lat": 41.945352, "stop_lon": -87.800558, "heading_degrees": 88, "transfer_to_route_id": NaN, "stop_type": "bus", "parent_stop_id": 12480, "route": "152"}, {"route_id": "152", "route_code": 3, "stop_name": "Addison & Southport", "stop_id": 12538, "stop_lat": 41.947037, "stop_lon": -87.6642, "heading_degrees": 78, "transfer_to_route_id": NaN, "stop_type": "bus", "parent_stop_id": 12538, "route": "152"}, {"route_id": "152", "route_code": 3, "stop_name": "Addison & Springfield", "stop_id": 12512, "stop_lat": 41.946402, "stop_lon": -87.72506, "heading_degrees": 90, "transfer_to_route_id": NaN, "stop_type": "bus", "parent_stop_id": 12512, "route": "152"}, {"route_id": "152", "route_code": 3, "stop_name": "Addison & St. Louis", "stop_id": 12516, "stop_lat": 41.946512, "stop_lon": -87.715205, "heading_degrees": 123, "transfer_to_route_id": NaN, "stop_type": "bus", "parent_stop_id": 12516, "route": "152"}, {"route_id": "152", "route_code": 3, "stop_name": "Addison & Western", "stop_id": 12527, "stop_lat": 41.946718, "stop_lon": -87.688438, "heading_degrees": 90, "transfer_to_route_id": "49-North^;49-South^;X49-North^+;X49-South^+", "stop_type": "bus", "parent_stop_id": 12527, "route": "152"}, {"route_id": "152", "route_code": 3, "stop_name": "Addison & Wolcott", "stop_id": 12532, "stop_lat": 41.946847, "stop_lon": -87.676232, "heading_degrees": 89, "transfer_to_route_id": NaN, "stop_type": "bus", "parent_stop_id": 12532, "route": "152"}, {"route_id": "152", "route_code": 3, "stop_name": "Addison Blue Line Station", "stop_id": 12515, "stop_lat": 41.946465, "stop_lon": -87.717812, "heading_degrees": 90, "transfer_to_route_id": "Blue*", "stop_type": "bus", "parent_stop_id": 12515, "route": "152"}, {"route_id": "152", "route_code": 3, "stop_name": "Addison Brown Line Station", "stop_id": 12533, "stop_lat": 41.946893, "stop_lon": -87.67469, "heading_degrees": 87, "transfer_to_route_id": "Brown*", "stop_type": "bus", "parent_stop_id": 12533, "route": "152"}, {"route_id": "152", "route_code": 3, "stop_name": "Addison Red Line Station", "stop_id": 12543, "stop_lat": 41.947163, "stop_lon": -87.653392, "heading_degrees": 70, "transfer_to_route_id": "Red*", "stop_type": "bus", "parent_stop_id": 12543, "route": "152"}, {"route_id": "152", "route_code": 3, "stop_name": "Lake Shore & Waveland", "stop_id": 1163, "stop_lat": 41.95036, "stop_lon": -87.644422, "heading_degrees": 337, "transfer_to_route_id": "135-North^+;135-South^+;146-North^+;146-South^+;151-North^;151-South^", "stop_type": "bus", "parent_stop_id": 1163, "route": "152"}, {"route_id": "152", "route_code": 4, "stop_name": "Addison & Albany", "stop_id": 12577, "stop_lat": 41.946687, "stop_lon": -87.705287, "heading_degrees": 263, "transfer_to_route_id": NaN, "stop_type": "bus", "parent_stop_id": 12577, "route": "152"}, {"route_id": "152", "route_code": 4, "stop_name": "Addison & Ashland", "stop_id": 12560, "stop_lat": 41.947045, "stop_lon": -87.66865, "heading_degrees": 270, "transfer_to_route_id": "9-North^;9-South^;X9-North^+;X9-South^+", "stop_type": "bus", "parent_stop_id": 12560, "route": "152"}, {"route_id": "152", "route_code": 4, "stop_name": "Addison & Austin", "stop_id": 17222, "stop_lat": 41.945828, "stop_lon": -87.77694, "heading_degrees": 264, "transfer_to_route_id": "91-North^;91-South^", "stop_type": "bus", "parent_stop_id": 17222, "route": "152"}, {"route_id": "152", "route_code": 4, "stop_name": "Addison & Broadway", "stop_id": 12551, "stop_lat": 41.947459, "stop_lon": -87.647189, "heading_degrees": 246, "transfer_to_route_id": "36-North^;36-South^", "stop_type": "bus", "parent_stop_id": 12551, "route": "152"}, {"route_id": "152", "route_code": 4, "stop_name": "Addison & California", "stop_id": 12574, "stop_lat": 41.946743, "stop_lon": -87.697895, "heading_degrees": 267, "transfer_to_route_id": "94-South^", "stop_type": "bus", "parent_stop_id": 12574, "route": "152"}, {"route_id": "152", "route_code": 4, "stop_name": "Addison & Campbell", "stop_id": 12571, "stop_lat": 41.946784, "stop_lon": -87.69108, "heading_degrees": 270, "transfer_to_route_id": NaN, "stop_type": "bus", "parent_stop_id": 12571, "route": "152"}, {"route_id": "152", "route_code": 4, "stop_name": "Addison & Central", "stop_id": 17831, "stop_lat": 41.945947, "stop_lon": -87.767201, "heading_degrees": 272, "transfer_to_route_id": "85-North^;85-South^", "stop_type": "bus", "parent_stop_id": 17831, "route": "152"}, {"route_id": "152", "route_code": 4, "stop_name": "Addison & Cicero", "stop_id": 17147, "stop_lat": 41.946195, "stop_lon": -87.747455, "heading_degrees": 267, "transfer_to_route_id": "54-South^", "stop_type": "bus", "parent_stop_id": 17147, "route": "152"}, {"route_id": "152", "route_code": 4, "stop_name": "Addison & Clark", "stop_id": 12555, "stop_lat": 41.947276, "stop_lon": -87.65633, "heading_degrees": 268, "transfer_to_route_id": "22-North^;22-South^", "stop_type": "bus", "parent_stop_id": 12555, "route": "152"}, {"route_id": "152", "route_code": 4, "stop_name": "Addison & Cumberland Terminal", "stop_id": 12462, "stop_lat": 41.944525, "stop_lon": -87.835371, "heading_degrees": 65, "transfer_to_route_id": NaN, "stop_type": "bus", "parent_stop_id": 12462, "route": "152"}, {"route_id": "152", "route_code": 4, "stop_name": "Addison & Damen", "stop_id": 12565, "stop_lat": 41.94687, "stop_lon": -87.678408, "heading_degrees": 270, "transfer_to_route_id": "50-North^;50-South^", "stop_type": "bus", "parent_stop_id": 12565, "route": "152"}, {"route_id": "152", "route_code": 4, "stop_name": "Addison & Elston", "stop_id": 12579, "stop_lat": 41.946695, "stop_lon": -87.709483, "heading_degrees": 245, "transfer_to_route_id": NaN, "stop_type": "bus", "parent_stop_id": 12579, "route": "152"}, {"route_id": "152", "route_code": 4, "stop_name": "Addison & Forest Preserve Avenue", "stop_id": 12628, "stop_lat": 41.945177, "stop_lon": -87.824528, "heading_degrees": 267, "transfer_to_route_id": NaN, "stop_type": "bus", "parent_stop_id": 12628, "route": "152"}, {"route_id": "152", "route_code": 4, "stop_name": "Addison & Francisco", "stop_id": 12575, "stop_lat": 41.946718, "stop_lon": -87.700312, "heading_degrees": 265, "transfer_to_route_id": NaN, "stop_type": "bus", "parent_stop_id": 12575, "route": "152"}, {"route_id": "152", "route_code": 4, "stop_name": "Addison & Fremont", "stop_id": 12553, "stop_lat": 41.947347, "stop_lon": -87.651722, "heading_degrees": 270, "transfer_to_route_id": NaN, "stop_type": "bus", "parent_stop_id": 12553, "route": "152"}, {"route_id": "152", "route_code": 4, "stop_name": "Addison & Greenview", "stop_id": 12559, "stop_lat": 41.947085, "stop_lon": -87.666297, "heading_degrees": 262, "transfer_to_route_id": NaN, "stop_type": "bus", "parent_stop_id": 12559, "route": "152"}, {"route_id": "152", "route_code": 4, "stop_name": "Addison & Halsted", "stop_id": 12552, "stop_lat": 41.947381, "stop_lon": -87.64932, "heading_degrees": 269, "transfer_to_route_id": "8-North^;8-South^", "stop_type": "bus", "parent_stop_id": 12552, "route": "152"}, {"route_id": "152", "route_code": 4, "stop_name": "Addison & Hamlin", "stop_id": 12584, "stop_lat": 41.946512, "stop_lon": -87.722373, "heading_degrees": 267, "transfer_to_route_id": NaN, "stop_type": "bus", "parent_stop_id": 12584, "route": "152"}, {"route_id": "152", "route_code": 4, "stop_name": "Addison & Harlem", "stop_id": 17357, "stop_lat": 41.945312, "stop_lon": -87.807393, "heading_degrees": 268, "transfer_to_route_id": "90-South^", "stop_type": "bus", "parent_stop_id": 17357, "route": "152"}, {"route_id": "152", "route_code": 4, "stop_name": "Addison & Harlem", "stop_id": 17358, "stop_lat": 41.94524, "stop_lon": -87.806693, "heading_degrees": 102, "transfer_to_route_id": "90-North^", "stop_type": "bus", "parent_stop_id": 17358, "route": "152"}, {"route_id": "152", "route_code": 4, "stop_name": "Addison & Hoyne", "stop_id": 12566, "stop_lat": 41.94683, "stop_lon": -87.68084, "heading_degrees": 269, "transfer_to_route_id": NaN, "stop_type": "bus", "parent_stop_id": 12566, "route": "152"}, {"route_id": "152", "route_code": 4, "stop_name": "Addison & Karlov", "stop_id": 12587, "stop_lat": 41.946448, "stop_lon": -87.729335, "heading_degrees": 236, "transfer_to_route_id": NaN, "stop_type": "bus", "parent_stop_id": 12587, "route": "152"}, {"route_id": "152", "route_code": 4, "stop_name": "Addison & Kedzie", "stop_id": 12578, "stop_lat": 41.946703, "stop_lon": -87.707703, "heading_degrees": 270, "transfer_to_route_id": NaN, "stop_type": "bus", "parent_stop_id": 12578, "route": "152"}, {"route_id": "152", "route_code": 4, "stop_name": "Addison & Keeler", "stop_id": 12589, "stop_lat": 41.946417, "stop_lon": -87.732005, "heading_degrees": 271, "transfer_to_route_id": NaN, "stop_type": "bus", "parent_stop_id": 12589, "route": "152"}, {"route_id": "152", "route_code": 4, "stop_name": "Addison & Kenton", "stop_id": 12593, "stop_lat": 41.94629, "stop_lon": -87.741765, "heading_degrees": 270, "transfer_to_route_id": NaN, "stop_type": "bus", "parent_stop_id": 12593, "route": "152"}, {"route_id": "152", "route_code": 4, "stop_name": "Addison & Kilbourn", "stop_id": 18708, "stop_lat": 41.946295, "stop_lon": -87.739618, "heading_degrees": 270, "transfer_to_route_id": NaN, "stop_type": "bus", "parent_stop_id": 18708, "route": "152"}, {"route_id": "152", "route_code": 4, "stop_name": "Addison & Kilpatrick", "stop_id": 12594, "stop_lat": 41.94625, "stop_lon": -87.744418, "heading_degrees": 241, "transfer_to_route_id": NaN, "stop_type": "bus", "parent_stop_id": 12594, "route": "152"}, {"route_id": "152", "route_code": 4, "stop_name": "Addison & Kimball", "stop_id": 16173, "stop_lat": 41.946647, "stop_lon": -87.712995, "heading_degrees": 268, "transfer_to_route_id": "82-North^;82-South^", "stop_type": "bus", "parent_stop_id": 16173, "route": "152"}, {"route_id": "152", "route_code": 4, "stop_name": "Addison & Kostner", "stop_id": 12591, "stop_lat": 41.946337, "stop_lon": -87.737488, "heading_degrees": 270, "transfer_to_route_id": NaN, "stop_type": "bus", "parent_stop_id": 12591, "route": "152"}, {"route_id": "152", "route_code": 4, "stop_name": "Addison & Lake Shore", "stop_id": 12549, "stop_lat": 41.94861, "stop_lon": -87.64387, "heading_degrees": 248, "transfer_to_route_id": "135-North^+;135-South^+;146-North^+;146-South^+;151-North^;151-South^", "stop_type": "bus", "parent_stop_id": 12549, "route": "152"}, {"route_id": "152", "route_code": 4, "stop_name": "Addison & Lakewood", "stop_id": 12557, "stop_lat": 41.947203, "stop_lon": -87.661433, "heading_degrees": 262, "transfer_to_route_id": NaN, "stop_type": "bus", "parent_stop_id": 12557, "route": "152"}, {"route_id": "152", "route_code": 4, "stop_name": "Addison & Lamon", "stop_id": 12596, "stop_lat": 41.946195, "stop_lon": -87.749522, "heading_degrees": 262, "transfer_to_route_id": NaN, "stop_type": "bus", "parent_stop_id": 12596, "route": "152"}, {"route_id": "152", "route_code": 4, "stop_name": "Addison & Laramie", "stop_id": 12599, "stop_lat": 41.946123, "stop_lon": -87.756817, "heading_degrees": 267, "transfer_to_route_id": NaN, "stop_type": "bus", "parent_stop_id": 12599, "route": "152"}, {"route_id": "152", "route_code": 4, "stop_name": "Addison & Lavergne", "stop_id": 12597, "stop_lat": 41.94617, "stop_lon": -87.751922, "heading_degrees": 268, "transfer_to_route_id": NaN, "stop_type": "bus", "parent_stop_id": 12597, "route": "152"}, {"route_id": "152", "route_code": 4, "stop_name": "Addison & Lawndale/Avondale", "stop_id": 12583, "stop_lat": 41.946543, "stop_lon": -87.720482, "heading_degrees": 261, "transfer_to_route_id": NaN, "stop_type": "bus", "parent_stop_id": 12583, "route": "152"}, {"route_id": "152", "route_code": 4, "stop_name": "Addison & Leavitt", "stop_id": 12567, "stop_lat": 41.946847, "stop_lon": -87.683225, "heading_degrees": 270, "transfer_to_route_id": NaN, "stop_type": "bus", "parent_stop_id": 12567, "route": "152"}, {"route_id": "152", "route_code": 4, "stop_name": "Addison & Leclaire", "stop_id": 12598, "stop_lat": 41.946147, "stop_lon": -87.754337, "heading_degrees": 259, "transfer_to_route_id": NaN, "stop_type": "bus", "parent_stop_id": 12598, "route": "152"}, {"route_id": "152", "route_code": 4, "stop_name": "Addison & Linder", "stop_id": 12602, "stop_lat": 41.946012, "stop_lon": -87.764208, "heading_degrees": 246, "transfer_to_route_id": NaN, "stop_type": "bus", "parent_stop_id": 12602, "route": "152"}, {"route_id": "152", "route_code": 4, "stop_name": "Addison & Lockwood", "stop_id": 12600, "stop_lat": 41.946083, "stop_lon": -87.75928, "heading_degrees": 242, "transfer_to_route_id": NaN, "stop_type": "bus", "parent_stop_id": 12600, "route": "152"}, {"route_id": "152", "route_code": 4, "stop_name": "Addison & Long", "stop_id": 17221, "stop_lat": 41.946012, "stop_lon": -87.762205, "heading_degrees": 267, "transfer_to_route_id": NaN, "stop_type": "bus", "parent_stop_id": 17221, "route": "152"}, {"route_id": "152", "route_code": 4, "stop_name": "Addison & Major", "stop_id": 12604, "stop_lat": 41.945948, "stop_lon": -87.769087, "heading_degrees": 259, "transfer_to_route_id": NaN, "stop_type": "bus", "parent_stop_id": 12604, "route": "152"}, {"route_id": "152", "route_code": 4, "stop_name": "Addison & Marmora", "stop_id": 12606, "stop_lat": 41.945892, "stop_lon": -87.773952, "heading_degrees": 250, "transfer_to_route_id": NaN, "stop_type": "bus", "parent_stop_id": 12606, "route": "152"}, {"route_id": "152", "route_code": 4, "stop_name": "Addison & Meade", "stop_id": 12608, "stop_lat": 41.945813, "stop_lon": -87.778798, "heading_degrees": 267, "transfer_to_route_id": NaN, "stop_type": "bus", "parent_stop_id": 12608, "route": "152"}, {"route_id": "152", "route_code": 4, "stop_name": "Addison & Melvina", "stop_id": 12609, "stop_lat": 41.945797, "stop_lon": -87.781263, "heading_degrees": 267, "transfer_to_route_id": NaN, "stop_type": "bus", "parent_stop_id": 12609, "route": "152"}, {"route_id": "152", "route_code": 4, "stop_name": "Addison & Menard", "stop_id": 12605, "stop_lat": 41.945917, "stop_lon": -87.77152, "heading_degrees": 262, "transfer_to_route_id": NaN, "stop_type": "bus", "parent_stop_id": 12605, "route": "152"}, {"route_id": "152", "route_code": 4, "stop_name": "Addison & Milwaukee", "stop_id": 12590, "stop_lat": 41.94637, "stop_lon": -87.735455, "heading_degrees": 269, "transfer_to_route_id": "56-North^;56-South^", "stop_type": "bus", "parent_stop_id": 12590, "route": "152"}, {"route_id": "152", "route_code": 4, "stop_name": "Addison & Mobile", "stop_id": 12610, "stop_lat": 41.945788, "stop_lon": -87.783678, "heading_degrees": 231, "transfer_to_route_id": NaN, "stop_type": "bus", "parent_stop_id": 12610, "route": "152"}, {"route_id": "152", "route_code": 4, "stop_name": "Addison & Narragansett", "stop_id": 17356, "stop_lat": 41.945702, "stop_lon": -87.786778, "heading_degrees": 270, "transfer_to_route_id": "86-North^;86-South^", "stop_type": "bus", "parent_stop_id": 17356, "route": "152"}, {"route_id": "152", "route_code": 4, "stop_name": "Addison & Neenah", "stop_id": 12613, "stop_lat": 41.94567, "stop_lon": -87.790163, "heading_degrees": 241, "transfer_to_route_id": NaN, "stop_type": "bus", "parent_stop_id": 12613, "route": "152"}, {"route_id": "152", "route_code": 4, "stop_name": "Addison & New England", "stop_id": 12617, "stop_lat": 41.945512, "stop_lon": -87.798302, "heading_degrees": 267, "transfer_to_route_id": NaN, "stop_type": "bus", "parent_stop_id": 12617, "route": "152"}, {"route_id": "152", "route_code": 4, "stop_name": "Addison & Nordica", "stop_id": 12619, "stop_lat": 41.945423, "stop_lon": -87.803182, "heading_degrees": 270, "transfer_to_route_id": NaN, "stop_type": "bus", "parent_stop_id": 12619, "route": "152"}, {"route_id": "152", "route_code": 4, "stop_name": "Addison & Normandy", "stop_id": 12615, "stop_lat": 41.945607, "stop_lon": -87.793453, "heading_degrees": 267, "transfer_to_route_id": NaN, "stop_type": "bus", "parent_stop_id": 12615, "route": "152"}, {"route_id": "152", "route_code": 4, "stop_name": "Addison & Oak Park", "stop_id": 12616, "stop_lat": 41.945558, "stop_lon": -87.795918, "heading_degrees": 267, "transfer_to_route_id": NaN, "stop_type": "bus", "parent_stop_id": 12616, "route": "152"}, {"route_id": "152", "route_code": 4, "stop_name": "Addison & Oakley", "stop_id": 18652, "stop_lat": 41.946827, "stop_lon": -87.68616, "heading_degrees": 270, "transfer_to_route_id": NaN, "stop_type": "bus", "parent_stop_id": 18652, "route": "152"}, {"route_id": "152", "route_code": 4, "stop_name": "Addison & Octavia", "stop_id": 12622, "stop_lat": 41.945297, "stop_lon": -87.8093, "heading_degrees": 269, "transfer_to_route_id": NaN, "stop_type": "bus", "parent_stop_id": 12622, "route": "152"}, {"route_id": "152", "route_code": 4, "stop_name": "Addison & Oketo", "stop_id": 12623, "stop_lat": 41.94524, "stop_lon": -87.811668, "heading_degrees": 268, "transfer_to_route_id": NaN, "stop_type": "bus", "parent_stop_id": 12623, "route": "152"}, {"route_id": "152", "route_code": 4, "stop_name": "Addison & Olcott", "stop_id": 12624, "stop_lat": 41.945208, "stop_lon": -87.814197, "heading_degrees": 265, "transfer_to_route_id": NaN, "stop_type": "bus", "parent_stop_id": 12624, "route": "152"}, {"route_id": "152", "route_code": 4, "stop_name": "Addison & Oriole", "stop_id": 12625, "stop_lat": 41.94524, "stop_lon": -87.81666, "heading_degrees": 275, "transfer_to_route_id": NaN, "stop_type": "bus", "parent_stop_id": 12625, "route": "152"}, {"route_id": "152", "route_code": 4, "stop_name": "Addison & Overhill", "stop_id": 12626, "stop_lat": 41.945312, "stop_lon": -87.819425, "heading_degrees": 260, "transfer_to_route_id": NaN, "stop_type": "bus", "parent_stop_id": 12626, "route": "152"}, {"route_id": "152", "route_code": 4, "stop_name": "Addison & Ozanam", "stop_id": 12627, "stop_lat": 41.945257, "stop_lon": -87.821555, "heading_degrees": 262, "transfer_to_route_id": NaN, "stop_type": "bus", "parent_stop_id": 12627, "route": "152"}, {"route_id": "152", "route_code": 4, "stop_name": "Addison & Page", "stop_id": 12629, "stop_lat": 41.94509, "stop_lon": -87.827707, "heading_degrees": 262, "transfer_to_route_id": NaN, "stop_type": "bus", "parent_stop_id": 12629, "route": "152"}, {"route_id": "152", "route_code": 4, "stop_name": "Addison & Paris", "stop_id": 12631, "stop_lat": 41.945018, "stop_lon": -87.830138, "heading_degrees": 267, "transfer_to_route_id": NaN, "stop_type": "bus", "parent_stop_id": 12631, "route": "152"}, {"route_id": "152", "route_code": 4, "stop_name": "Addison & Paulina", "stop_id": 12561, "stop_lat": 41.947005, "stop_lon": -87.671145, "heading_degrees": 269, "transfer_to_route_id": NaN, "stop_type": "bus", "parent_stop_id": 12561, "route": "152"}, {"route_id": "152", "route_code": 4, "stop_name": "Addison & Pine Grove", "stop_id": 12550, "stop_lat": 41.948047, "stop_lon": -87.645412, "heading_degrees": 246, "transfer_to_route_id": NaN, "stop_type": "bus", "parent_stop_id": 12550, "route": "152"}, {"route_id": "152", "route_code": 4, "stop_name": "Addison & Pittsburgh", "stop_id": 12633, "stop_lat": 41.944955, "stop_lon": -87.832602, "heading_degrees": 270, "transfer_to_route_id": NaN, "stop_type": "bus", "parent_stop_id": 12633, "route": "152"}, {"route_id": "152", "route_code": 4, "stop_name": "Addison & Pontiac", "stop_id": 12635, "stop_lat": 41.944877, "stop_lon": -87.835026, "heading_degrees": 268, "transfer_to_route_id": NaN, "stop_type": "bus", "parent_stop_id": 12635, "route": "152"}, {"route_id": "152", "route_code": 4, "stop_name": "Addison & Pulaski", "stop_id": 12586, "stop_lat": 41.946488, "stop_lon": -87.72719, "heading_degrees": 263, "transfer_to_route_id": "53-North^;53-South^", "stop_type": "bus", "parent_stop_id": 12586, "route": "152"}, {"route_id": "152", "route_code": 4, "stop_name": "Addison & Racine", "stop_id": 12556, "stop_lat": 41.947188, "stop_lon": -87.659002, "heading_degrees": 269, "transfer_to_route_id": NaN, "stop_type": "bus", "parent_stop_id": 12556, "route": "152"}, {"route_id": "152", "route_code": 4, "stop_name": "Addison & Sacramento", "stop_id": 12576, "stop_lat": 41.946703, "stop_lon": -87.702775, "heading_degrees": 267, "transfer_to_route_id": NaN, "stop_type": "bus", "parent_stop_id": 12576, "route": "152"}, {"route_id": "152", "route_code": 4, "stop_name": "Addison & Sayre", "stop_id": 12618, "stop_lat": 41.945472, "stop_lon": -87.800687, "heading_degrees": 268, "transfer_to_route_id": NaN, "stop_type": "bus", "parent_stop_id": 12618, "route": "152"}, {"route_id": "152", "route_code": 4, "stop_name": "Addison & Southport", "stop_id": 12558, "stop_lat": 41.947157, "stop_lon": -87.66385, "heading_degrees": 264, "transfer_to_route_id": NaN, "stop_type": "bus", "parent_stop_id": 12558, "route": "152"}, {"route_id": "152", "route_code": 4, "stop_name": "Addison & Springfield", "stop_id": 12585, "stop_lat": 41.946488, "stop_lon": -87.724805, "heading_degrees": 268, "transfer_to_route_id": NaN, "stop_type": "bus", "parent_stop_id": 12585, "route": "152"}, {"route_id": "152", "route_code": 4, "stop_name": "Addison & St. Louis", "stop_id": 12581, "stop_lat": 41.946615, "stop_lon": -87.715047, "heading_degrees": 268, "transfer_to_route_id": NaN, "stop_type": "bus", "parent_stop_id": 12581, "route": "152"}, {"route_id": "152", "route_code": 4, "stop_name": "Addison & Talman", "stop_id": 12573, "stop_lat": 41.946758, "stop_lon": -87.694748, "heading_degrees": 270, "transfer_to_route_id": "94-South^", "stop_type": "bus", "parent_stop_id": 12573, "route": "152"}, {"route_id": "152", "route_code": 4, "stop_name": "Addison & Western", "stop_id": 12569, "stop_lat": 41.946807, "stop_lon": -87.687882, "heading_degrees": 270, "transfer_to_route_id": "49-North^;X49-North^+", "stop_type": "bus", "parent_stop_id": 12569, "route": "152"}, {"route_id": "152", "route_code": 4, "stop_name": "Addison & Wolcott", "stop_id": 12564, "stop_lat": 41.946918, "stop_lon": -87.675945, "heading_degrees": 269, "transfer_to_route_id": NaN, "stop_type": "bus", "parent_stop_id": 12564, "route": "152"}, {"route_id": "152", "route_code": 4, "stop_name": "Addison Blue Line Station", "stop_id": 12582, "stop_lat": 41.946592, "stop_lon": -87.718478, "heading_degrees": 267, "transfer_to_route_id": "Blue*", "stop_type": "bus", "parent_stop_id": 12582, "route": "152"}, {"route_id": "152", "route_code": 4, "stop_name": "Addison Brown Line Station", "stop_id": 12563, "stop_lat": 41.946982, "stop_lon": -87.674801, "heading_degrees": 270, "transfer_to_route_id": "Brown*", "stop_type": "bus", "parent_stop_id": 12563, "route": "152"}, {"route_id": "152", "route_code": 4, "stop_name": "Addison Red Line Station", "stop_id": 12554, "stop_lat": 41.947314, "stop_lon": -87.653799, "heading_degrees": 270, "transfer_to_route_id": "Red*", "stop_type": "bus", "parent_stop_id": 12554, "route": "152"}, {"route_id": "152", "route_code": 4, "stop_name": "Lake Shore & Grace", "stop_id": 1061, "stop_lat": 41.952111, "stop_lon": -87.645106, "heading_degrees": 180, "transfer_to_route_id": "135-South^+;146-South^+;151-South^", "stop_type": "bus", "parent_stop_id": 1061, "route": "152"}, {"route_id": "152", "route_code": 4, "stop_name": "Lake Shore & Grace", "stop_id": 4886, "stop_lat": 41.952244, "stop_lon": -87.644963, "heading_degrees": 0, "transfer_to_route_id": NaN, "stop_type": "bus", "parent_stop_id": 4886, "route": "152"}, {"route_id": "152", "route_code": 4, "stop_name": "Lake Shore & Waveland", "stop_id": 1062, "stop_lat": 41.950261, "stop_lon": -87.644529, "heading_degrees": 157, "transfer_to_route_id": NaN, "stop_type": "bus", "parent_stop_id": 1062, "route": "152"}, {"route_id": "152", "route_code": 4, "stop_name": "Lake Shore & Waveland", "stop_id": 1163, "stop_lat": 41.95036, "stop_lon": -87.644422, "heading_degrees": 337, "transfer_to_route_id": "135-North^+;146-North^+;151-North^", "stop_type": "bus", "parent_stop_id": 1163, "route": "152"}, {"route_id": "155", "route_code": 3, "stop_name": "Ashland & Farwell", "stop_id": 18401, "stop_lat": 42.006488, "stop_lon": -87.669917, "heading_degrees": 359, "transfer_to_route_id": NaN, "stop_type": "bus", "parent_stop_id": 18401, "route": "155"}, {"route_id": "155", "route_code": 3, "stop_name": "Ashland & Morse", "stop_id": 1752, "stop_lat": 42.007688, "stop_lon": -87.669965, "heading_degrees": 358, "transfer_to_route_id": NaN, "stop_type": "bus", "parent_stop_id": 1752, "route": "155"}, {"route_id": "155", "route_code": 3, "stop_name": "Devon & Albany", "stop_id": 1722, "stop_lat": 41.997384, "stop_lon": -87.707105, "heading_degrees": 90, "transfer_to_route_id": NaN, "stop_type": "bus", "parent_stop_id": 1722, "route": "155"}, {"route_id": "155", "route_code": 3, "stop_name": "Devon & California", "stop_id": 1725, "stop_lat": 41.997515, "stop_lon": -87.699849, "heading_degrees": 88, "transfer_to_route_id": "93-North^;93-South^", "stop_type": "bus", "parent_stop_id": 1725, "route": "155"}, {"route_id": "155", "route_code": 3, "stop_name": "Devon & Campbell", "stop_id": 1728, "stop_lat": 41.997642, "stop_lon": -87.692512, "heading_degrees": 88, "transfer_to_route_id": NaN, "stop_type": "bus", "parent_stop_id": 1728, "route": "155"}, {"route_id": "155", "route_code": 3, "stop_name": "Devon & Clark", "stop_id": 1739, "stop_lat": 41.998029, "stop_lon": -87.670161, "heading_degrees": 90, "transfer_to_route_id": "151-North^;151-South^;22-North^;36-North^;36-South^", "stop_type": "bus", "parent_stop_id": 1739, "route": "155"}, {"route_id": "155", "route_code": 3, "stop_name": "Devon & Damen", "stop_id": 18505, "stop_lat": 41.997852, "stop_lon": -87.679917, "heading_degrees": 90, "transfer_to_route_id": NaN, "stop_type": "bus", "parent_stop_id": 18505, "route": "155"}, {"route_id": "155", "route_code": 3, "stop_name": "Devon & Francisco", "stop_id": 1724, "stop_lat": 41.997518, "stop_lon": -87.70233, "heading_degrees": 88, "transfer_to_route_id": NaN, "stop_type": "bus", "parent_stop_id": 1724, "route": "155"}, {"route_id": "155", "route_code": 3, "stop_name": "Devon & Glenwood", "stop_id": 1741, "stop_lat": 41.998075, "stop_lon": -87.665589, "heading_degrees": 90, "transfer_to_route_id": NaN, "stop_type": "bus", "parent_stop_id": 1741, "route": "155"}, {"route_id": "155", "route_code": 3, "stop_name": "Devon & Greenview", "stop_id": 1740, "stop_lat": 41.99806, "stop_lon": -87.667998, "heading_degrees": 89, "transfer_to_route_id": NaN, "stop_type": "bus", "parent_stop_id": 1740, "route": "155"}, {"route_id": "155", "route_code": 3, "stop_name": "Devon & Hermitage", "stop_id": 1736, "stop_lat": 41.997975, "stop_lon": -87.673666, "heading_degrees": 90, "transfer_to_route_id": NaN, "stop_type": "bus", "parent_stop_id": 1736, "route": "155"}, {"route_id": "155", "route_code": 3, "stop_name": "Devon & Hoyne", "stop_id": 1732, "stop_lat": 41.997803, "stop_lon": -87.682716, "heading_degrees": 89, "transfer_to_route_id": NaN, "stop_type": "bus", "parent_stop_id": 1732, "route": "155"}, {"route_id": "155", "route_code": 3, "stop_name": "Devon & Kedzie", "stop_id": 1721, "stop_lat": 41.997337, "stop_lon": -87.708928, "heading_degrees": 90, "transfer_to_route_id": NaN, "stop_type": "bus", "parent_stop_id": 1721, "route": "155"}, {"route_id": "155", "route_code": 3, "stop_name": "Devon & Kedzie Terminal", "stop_id": 14153, "stop_lat": 41.997821, "stop_lon": -87.709592, "heading_degrees": 91, "transfer_to_route_id": "11-North^;11-South^;82-North^;82-South^;96-East^;96-West^", "stop_type": "bus", "parent_stop_id": 14153, "route": "155"}, {"route_id": "155", "route_code": 3, "stop_name": "Devon & Lakewood", "stop_id": 1743, "stop_lat": 41.998109, "stop_lon": -87.663171, "heading_degrees": 90, "transfer_to_route_id": NaN, "stop_type": "bus", "parent_stop_id": 1743, "route": "155"}, {"route_id": "155", "route_code": 3, "stop_name": "Devon & Leavitt", "stop_id": 17195, "stop_lat": 41.997765, "stop_lon": -87.684655, "heading_degrees": 90, "transfer_to_route_id": NaN, "stop_type": "bus", "parent_stop_id": 17195, "route": "155"}, {"route_id": "155", "route_code": 3, "stop_name": "Devon & Magnolia", "stop_id": 1744, "stop_lat": 41.998115, "stop_lon": -87.661348, "heading_degrees": 87, "transfer_to_route_id": "136-North^+;147-North^+;151-North^;151-South^;36-North^;36-South^", "stop_type": "bus", "parent_stop_id": 1744, "route": "155"}, {"route_id": "155", "route_code": 3, "stop_name": "Devon & Oakley", "stop_id": 1730, "stop_lat": 41.997722, "stop_lon": -87.68763, "heading_degrees": 86, "transfer_to_route_id": NaN, "stop_type": "bus", "parent_stop_id": 1730, "route": "155"}, {"route_id": "155", "route_code": 3, "stop_name": "Devon & Ridge ", "stop_id": 17196, "stop_lat": 41.997907, "stop_lon": -87.676361, "heading_degrees": 82, "transfer_to_route_id": NaN, "stop_type": "bus", "parent_stop_id": 17196, "route": "155"}, {"route_id": "155", "route_code": 3, "stop_name": "Devon & Rockwell", "stop_id": 17194, "stop_lat": 41.997605, "stop_lon": -87.694367, "heading_degrees": 90, "transfer_to_route_id": NaN, "stop_type": "bus", "parent_stop_id": 17194, "route": "155"}, {"route_id": "155", "route_code": 3, "stop_name": "Devon & Sacramento", "stop_id": 17193, "stop_lat": 41.997436, "stop_lon": -87.704092, "heading_degrees": 88, "transfer_to_route_id": NaN, "stop_type": "bus", "parent_stop_id": 17193, "route": "155"}, {"route_id": "155", "route_code": 3, "stop_name": "Devon & Washtenaw", "stop_id": 1726, "stop_lat": 41.997557, "stop_lon": -87.69739, "heading_degrees": 89, "transfer_to_route_id": NaN, "stop_type": "bus", "parent_stop_id": 1726, "route": "155"}, {"route_id": "155", "route_code": 3, "stop_name": "Devon & Western", "stop_id": 1729, "stop_lat": 41.997664, "stop_lon": -87.690171, "heading_degrees": 88, "transfer_to_route_id": "49B-North^;49B-South^", "stop_type": "bus", "parent_stop_id": 1729, "route": "155"}, {"route_id": "155", "route_code": 3, "stop_name": "Morse & Glenwood (Red Line)", "stop_id": 1754, "stop_lat": 42.007905, "stop_lon": -87.665487, "heading_degrees": 90, "transfer_to_route_id": "96-East^;96-West^;Red*", "stop_type": "bus", "parent_stop_id": 1754, "route": "155"}, {"route_id": "155", "route_code": 3, "stop_name": "Morse & Greenview", "stop_id": 1753, "stop_lat": 42.007807, "stop_lon": -87.668047, "heading_degrees": 86, "transfer_to_route_id": NaN, "stop_type": "bus", "parent_stop_id": 1753, "route": "155"}, {"route_id": "155", "route_code": 3, "stop_name": "Pratt & Ashland", "stop_id": 1750, "stop_lat": 42.00545, "stop_lon": -87.669787, "heading_degrees": 270, "transfer_to_route_id": NaN, "stop_type": "bus", "parent_stop_id": 1750, "route": "155"}, {"route_id": "155", "route_code": 3, "stop_name": "Pratt & Glenwood", "stop_id": 1748, "stop_lat": 42.005499, "stop_lon": -87.666196, "heading_degrees": 267, "transfer_to_route_id": NaN, "stop_type": "bus", "parent_stop_id": 1748, "route": "155"}, {"route_id": "155", "route_code": 3, "stop_name": "Pratt & Greenview", "stop_id": 1749, "stop_lat": 42.005466, "stop_lon": -87.668179, "heading_degrees": 268, "transfer_to_route_id": NaN, "stop_type": "bus", "parent_stop_id": 1749, "route": "155"}, {"route_id": "155", "route_code": 3, "stop_name": "Pratt & Lakewood", "stop_id": 1747, "stop_lat": 42.005548, "stop_lon": -87.66407, "heading_degrees": 270, "transfer_to_route_id": NaN, "stop_type": "bus", "parent_stop_id": 1747, "route": "155"}, {"route_id": "155", "route_code": 3, "stop_name": "Pratt & Sheridan", "stop_id": 1746, "stop_lat": 42.005569, "stop_lon": -87.661394, "heading_degrees": 268, "transfer_to_route_id": "147-North^+;147-South^+", "stop_type": "bus", "parent_stop_id": 1746, "route": "155"}, {"route_id": "155", "route_code": 3, "stop_name": "Sheridan & Arthur (Red Line)", "stop_id": 1203, "stop_lat": 42.00011, "stop_lon": -87.6606, "heading_degrees": 358, "transfer_to_route_id": "147-South^+", "stop_type": "bus", "parent_stop_id": 1203, "route": "155"}, {"route_id": "155", "route_code": 3, "stop_name": "Sheridan & Loyola", "stop_id": 1204, "stop_lat": 42.001789, "stop_lon": -87.660679, "heading_degrees": 358, "transfer_to_route_id": "Red*", "stop_type": "bus", "parent_stop_id": 1204, "route": "155"}, {"route_id": "155", "route_code": 3, "stop_name": "Sheridan & North Shore", "stop_id": 1206, "stop_lat": 42.003949, "stop_lon": -87.660694, "heading_degrees": 359, "transfer_to_route_id": NaN, "stop_type": "bus", "parent_stop_id": 1206, "route": "155"}, {"route_id": "155", "route_code": 4, "stop_name": "Devon & Albany", "stop_id": 1778, "stop_lat": 41.99749, "stop_lon": -87.706783, "heading_degrees": 268, "transfer_to_route_id": NaN, "stop_type": "bus", "parent_stop_id": 1778, "route": "155"}, {"route_id": "155", "route_code": 4, "stop_name": "Devon & California", "stop_id": 17199, "stop_lat": 41.997611, "stop_lon": -87.70003, "heading_degrees": 268, "transfer_to_route_id": "93-North^;93-South^", "stop_type": "bus", "parent_stop_id": 17199, "route": "155"}, {"route_id": "155", "route_code": 4, "stop_name": "Devon & Campbell", "stop_id": 1772, "stop_lat": 41.997746, "stop_lon": -87.69216, "heading_degrees": 269, "transfer_to_route_id": NaN, "stop_type": "bus", "parent_stop_id": 1772, "route": "155"}, {"route_id": "155", "route_code": 4, "stop_name": "Devon & Clark", "stop_id": 1762, "stop_lat": 41.998148, "stop_lon": -87.67035, "heading_degrees": 270, "transfer_to_route_id": "151-North^;151-South^;22-North^;22-South^;36-North^;36-South^", "stop_type": "bus", "parent_stop_id": 1762, "route": "155"}, {"route_id": "155", "route_code": 4, "stop_name": "Devon & Damen", "stop_id": 18504, "stop_lat": 41.997956, "stop_lon": -87.680448, "heading_degrees": 268, "transfer_to_route_id": NaN, "stop_type": "bus", "parent_stop_id": 18504, "route": "155"}, {"route_id": "155", "route_code": 4, "stop_name": "Devon & Francisco", "stop_id": 1776, "stop_lat": 41.997577, "stop_lon": -87.701944, "heading_degrees": 269, "transfer_to_route_id": NaN, "stop_type": "bus", "parent_stop_id": 1776, "route": "155"}, {"route_id": "155", "route_code": 4, "stop_name": "Devon & Glenwood", "stop_id": 1760, "stop_lat": 41.998202, "stop_lon": -87.665335, "heading_degrees": 269, "transfer_to_route_id": NaN, "stop_type": "bus", "parent_stop_id": 1760, "route": "155"}, {"route_id": "155", "route_code": 4, "stop_name": "Devon & Greenview", "stop_id": 1761, "stop_lat": 41.998174, "stop_lon": -87.667779, "heading_degrees": 270, "transfer_to_route_id": NaN, "stop_type": "bus", "parent_stop_id": 1761, "route": "155"}, {"route_id": "155", "route_code": 4, "stop_name": "Devon & Hermitage", "stop_id": 1764, "stop_lat": 41.998079, "stop_lon": -87.673483, "heading_degrees": 268, "transfer_to_route_id": NaN, "stop_type": "bus", "parent_stop_id": 1764, "route": "155"}, {"route_id": "155", "route_code": 4, "stop_name": "Devon & Hoyne", "stop_id": 1768, "stop_lat": 41.997913, "stop_lon": -87.682458, "heading_degrees": 269, "transfer_to_route_id": NaN, "stop_type": "bus", "parent_stop_id": 1768, "route": "155"}, {"route_id": "155", "route_code": 4, "stop_name": "Devon & Kedzie", "stop_id": 1779, "stop_lat": 41.997461, "stop_lon": -87.709203, "heading_degrees": 270, "transfer_to_route_id": "11-South^", "stop_type": "bus", "parent_stop_id": 1779, "route": "155"}, {"route_id": "155", "route_code": 4, "stop_name": "Devon & Kedzie Terminal", "stop_id": 14153, "stop_lat": 41.997821, "stop_lon": -87.709592, "heading_degrees": 91, "transfer_to_route_id": "11-North^;82-North^;82-South^;96-East^;96-West^", "stop_type": "bus", "parent_stop_id": 14153, "route": "155"}, {"route_id": "155", "route_code": 4, "stop_name": "Devon & Lakewood", "stop_id": 1758, "stop_lat": 41.998228, "stop_lon": -87.662915, "heading_degrees": 270, "transfer_to_route_id": NaN, "stop_type": "bus", "parent_stop_id": 1758, "route": "155"}, {"route_id": "155", "route_code": 4, "stop_name": "Devon & Leavitt", "stop_id": 17198, "stop_lat": 41.99786, "stop_lon": -87.68541, "heading_degrees": 268, "transfer_to_route_id": NaN, "stop_type": "bus", "parent_stop_id": 17198, "route": "155"}, {"route_id": "155", "route_code": 4, "stop_name": "Devon & Oakley", "stop_id": 1770, "stop_lat": 41.99783, "stop_lon": -87.687289, "heading_degrees": 270, "transfer_to_route_id": NaN, "stop_type": "bus", "parent_stop_id": 1770, "route": "155"}, {"route_id": "155", "route_code": 4, "stop_name": "Devon & Ridge", "stop_id": 17197, "stop_lat": 41.998021, "stop_lon": -87.67733, "heading_degrees": 264, "transfer_to_route_id": NaN, "stop_type": "bus", "parent_stop_id": 17197, "route": "155"}, {"route_id": "155", "route_code": 4, "stop_name": "Devon & Rockwell", "stop_id": 17406, "stop_lat": 41.997705, "stop_lon": -87.695151, "heading_degrees": 268, "transfer_to_route_id": NaN, "stop_type": "bus", "parent_stop_id": 17406, "route": "155"}, {"route_id": "155", "route_code": 4, "stop_name": "Devon & Sacramento", "stop_id": 17200, "stop_lat": 41.997523, "stop_lon": -87.704939, "heading_degrees": 266, "transfer_to_route_id": NaN, "stop_type": "bus", "parent_stop_id": 17200, "route": "155"}, {"route_id": "155", "route_code": 4, "stop_name": "Devon & Sheridan", "stop_id": 1757, "stop_lat": 41.998217, "stop_lon": -87.661115, "heading_degrees": 270, "transfer_to_route_id": "136-North^+;147-North^+;151-North^;151-South^;36-North^;36-South^", "stop_type": "bus", "parent_stop_id": 1757, "route": "155"}, {"route_id": "155", "route_code": 4, "stop_name": "Devon & Washtenaw", "stop_id": 1774, "stop_lat": 41.99766, "stop_lon": -87.69705, "heading_degrees": 269, "transfer_to_route_id": NaN, "stop_type": "bus", "parent_stop_id": 1774, "route": "155"}, {"route_id": "155", "route_code": 4, "stop_name": "Devon & Western", "stop_id": 1771, "stop_lat": 41.997806, "stop_lon": -87.689651, "heading_degrees": 268, "transfer_to_route_id": "49B-North^;49B-South^", "stop_type": "bus", "parent_stop_id": 1771, "route": "155"}, {"route_id": "155", "route_code": 4, "stop_name": "Morse & Glenwood (Red Line)", "stop_id": 1754, "stop_lat": 42.007905, "stop_lon": -87.665487, "heading_degrees": 90, "transfer_to_route_id": "96-East^;96-West^;Red*", "stop_type": "bus", "parent_stop_id": 1754, "route": "155"}, {"route_id": "155", "route_code": 4, "stop_name": "Morse & Lakewood", "stop_id": 1755, "stop_lat": 42.007886, "stop_lon": -87.663874, "heading_degrees": 90, "transfer_to_route_id": NaN, "stop_type": "bus", "parent_stop_id": 1755, "route": "155"}, {"route_id": "155", "route_code": 4, "stop_name": "Morse & Sheridan", "stop_id": 1756, "stop_lat": 42.007931, "stop_lon": -87.661963, "heading_degrees": 90, "transfer_to_route_id": "147-North^+;147-South^+", "stop_type": "bus", "parent_stop_id": 1756, "route": "155"}, {"route_id": "155", "route_code": 4, "stop_name": "Sheridan & Arthur", "stop_id": 1028, "stop_lat": 41.999849, "stop_lon": -87.660791, "heading_degrees": 180, "transfer_to_route_id": "147-South^+", "stop_type": "bus", "parent_stop_id": 1028, "route": "155"}, {"route_id": "155", "route_code": 4, "stop_name": "Sheridan & Loyola (Red Line)", "stop_id": 1027, "stop_lat": 42.001258, "stop_lon": -87.660825, "heading_degrees": 180, "transfer_to_route_id": "Red*", "stop_type": "bus", "parent_stop_id": 1027, "route": "155"}, {"route_id": "155", "route_code": 4, "stop_name": "Sheridan & North Shore", "stop_id": 1025, "stop_lat": 42.003361, "stop_lon": -87.660913, "heading_degrees": 180, "transfer_to_route_id": NaN, "stop_type": "bus", "parent_stop_id": 1025, "route": "155"}, {"route_id": "155", "route_code": 4, "stop_name": "Sheridan & Pratt", "stop_id": 1023, "stop_lat": 42.005303, "stop_lon": -87.661005, "heading_degrees": 178, "transfer_to_route_id": NaN, "stop_type": "bus", "parent_stop_id": 1023, "route": "155"}, {"route_id": "156", "route_code": 1, "stop_name": "Belmont & Broadway", "stop_id": 4996, "stop_lat": 41.940056, "stop_lon": -87.64418, "heading_degrees": 270, "transfer_to_route_id": "36-North^;36-South^", "stop_type": "bus", "parent_stop_id": 4996, "route": "156"}, {"route_id": "156", "route_code": 1, "stop_name": "Belmont & Halsted", "stop_id": 4998, "stop_lat": 41.940057, "stop_lon": -87.649108, "heading_degrees": 273, "transfer_to_route_id": "77-West^;8-North^;8-South^", "stop_type": "bus", "parent_stop_id": 4998, "route": "156"}, {"route_id": "156", "route_code": 1, "stop_name": "Belmont & Halsted Terminal", "stop_id": 14150, "stop_lat": 41.940207, "stop_lon": -87.648788, "heading_degrees": 178, "transfer_to_route_id": "151-North^;151-South^;77-East^", "stop_type": "bus", "parent_stop_id": 14150, "route": "156"}, {"route_id": "156", "route_code": 1, "stop_name": "Belmont & Orchard", "stop_id": 17901, "stop_lat": 41.940066, "stop_lon": -87.647359, "heading_degrees": 269, "transfer_to_route_id": NaN, "stop_type": "bus", "parent_stop_id": 17901, "route": "156"}, {"route_id": "156", "route_code": 1, "stop_name": "Belmont & Pine Grove", "stop_id": 4994, "stop_lat": 41.94009, "stop_lon": -87.642181, "heading_degrees": 270, "transfer_to_route_id": "77-East^", "stop_type": "bus", "parent_stop_id": 4994, "route": "156"}, {"route_id": "156", "route_code": 1, "stop_name": "Belmont & Sheridan", "stop_id": 4993, "stop_lat": 41.94017, "stop_lon": -87.64048, "heading_degrees": 270, "transfer_to_route_id": NaN, "stop_type": "bus", "parent_stop_id": 4993, "route": "156"}, {"route_id": "156", "route_code": 1, "stop_name": "Franklin & Jackson", "stop_id": 6711, "stop_lat": 41.877951, "stop_lon": -87.635134, "heading_degrees": 358, "transfer_to_route_id": "134-North^+;135-North^+;136-North^+", "stop_type": "bus", "parent_stop_id": 6711, "route": "156"}, {"route_id": "156", "route_code": 1, "stop_name": "Jackson & Chicago River", "stop_id": 14461, "stop_lat": 41.877972, "stop_lon": -87.638512, "heading_degrees": 90, "transfer_to_route_id": "126-East^;130-East^;37-North^;7-East^", "stop_type": "bus", "parent_stop_id": 14461, "route": "156"}, {"route_id": "156", "route_code": 1, "stop_name": "Jackson & Franklin", "stop_id": 68, "stop_lat": 41.87808, "stop_lon": -87.635449, "heading_degrees": 90, "transfer_to_route_id": "1-South^;126-East^;130-East^;28-South^;7-East^", "stop_type": "bus", "parent_stop_id": 68, "route": "156"}, {"route_id": "156", "route_code": 1, "stop_name": "Lasalle & 321 North", "stop_id": 4978, "stop_lat": 41.888568, "stop_lon": -87.632377, "heading_degrees": 359, "transfer_to_route_id": "Brown*;Purple*", "stop_type": "bus", "parent_stop_id": 4978, "route": "156"}, {"route_id": "156", "route_code": 1, "stop_name": "Lasalle & Burton", "stop_id": 1449, "stop_lat": 41.909309, "stop_lon": -87.632979, "heading_degrees": 356, "transfer_to_route_id": NaN, "stop_type": "bus", "parent_stop_id": 1449, "route": "156"}, {"route_id": "156", "route_code": 1, "stop_name": "Lasalle & Chicago", "stop_id": 4983, "stop_lat": 41.896973, "stop_lon": -87.632602, "heading_degrees": 359, "transfer_to_route_id": "66-East^;66-West^", "stop_type": "bus", "parent_stop_id": 4983, "route": "156"}, {"route_id": "156", "route_code": 1, "stop_name": "Lasalle & Delaware", "stop_id": 1443, "stop_lat": 41.899535, "stop_lon": -87.63268, "heading_degrees": 359, "transfer_to_route_id": NaN, "stop_type": "bus", "parent_stop_id": 1443, "route": "156"}, {"route_id": "156", "route_code": 1, "stop_name": "Lasalle & Division", "stop_id": 1446, "stop_lat": 41.904266, "stop_lon": -87.632817, "heading_degrees": 354, "transfer_to_route_id": "70-East^;Red*", "stop_type": "bus", "parent_stop_id": 1446, "route": "156"}, {"route_id": "156", "route_code": 1, "stop_name": "Lasalle & Erie", "stop_id": 14427, "stop_lat": 41.893878, "stop_lon": -87.632526, "heading_degrees": 359, "transfer_to_route_id": NaN, "stop_type": "bus", "parent_stop_id": 14427, "route": "156"}, {"route_id": "156", "route_code": 1, "stop_name": "Lasalle & Eugenie", "stop_id": 4984, "stop_lat": 41.912649, "stop_lon": -87.633026, "heading_degrees": 5, "transfer_to_route_id": "73-East^", "stop_type": "bus", "parent_stop_id": 4984, "route": "156"}, {"route_id": "156", "route_code": 1, "stop_name": "Lasalle & Goethe", "stop_id": 1447, "stop_lat": 41.906045, "stop_lon": -87.632887, "heading_degrees": 358, "transfer_to_route_id": NaN, "stop_type": "bus", "parent_stop_id": 1447, "route": "156"}, {"route_id": "156", "route_code": 1, "stop_name": "Lasalle & Grand", "stop_id": 4980, "stop_lat": 41.891816, "stop_lon": -87.632451, "heading_degrees": 0, "transfer_to_route_id": NaN, "stop_type": "bus", "parent_stop_id": 4980, "route": "156"}, {"route_id": "156", "route_code": 1, "stop_name": "Lasalle & Huron", "stop_id": 4982, "stop_lat": 41.895051, "stop_lon": -87.632552, "heading_degrees": 0, "transfer_to_route_id": NaN, "stop_type": "bus", "parent_stop_id": 4982, "route": "156"}, {"route_id": "156", "route_code": 1, "stop_name": "Lasalle & Illinois", "stop_id": 4979, "stop_lat": 41.890583, "stop_lon": -87.632416, "heading_degrees": 357, "transfer_to_route_id": NaN, "stop_type": "bus", "parent_stop_id": 4979, "route": "156"}, {"route_id": "156", "route_code": 1, "stop_name": "Lasalle & Kinzie", "stop_id": 14528, "stop_lat": 41.889516, "stop_lon": -87.632394, "heading_degrees": 359, "transfer_to_route_id": NaN, "stop_type": "bus", "parent_stop_id": 14528, "route": "156"}, {"route_id": "156", "route_code": 1, "stop_name": "Lasalle & Madison", "stop_id": 4973, "stop_lat": 41.881836, "stop_lon": -87.632301, "heading_degrees": 358, "transfer_to_route_id": "124-West^;134-South^+;135-South^+;136-South^+;157-West^;19-West^+;20-West^;56-North^;60-West^;J14-North^;Brown*;Orange*;Pink*;Purple*", "stop_type": "bus", "parent_stop_id": 4973, "route": "156"}, {"route_id": "156", "route_code": 1, "stop_name": "Lasalle & Maple", "stop_id": 1445, "stop_lat": 41.902152, "stop_lon": -87.632753, "heading_degrees": 359, "transfer_to_route_id": NaN, "stop_type": "bus", "parent_stop_id": 1445, "route": "156"}, {"route_id": "156", "route_code": 1, "stop_name": "Lasalle & North Avenue", "stop_id": 1450, "stop_lat": 41.911007, "stop_lon": -87.633005, "heading_degrees": 358, "transfer_to_route_id": "72-East^;73-East^;9-North^", "stop_type": "bus", "parent_stop_id": 1450, "route": "156"}, {"route_id": "156", "route_code": 1, "stop_name": "Lasalle & Oak", "stop_id": 1444, "stop_lat": 41.900806, "stop_lon": -87.632697, "heading_degrees": 0, "transfer_to_route_id": NaN, "stop_type": "bus", "parent_stop_id": 1444, "route": "156"}, {"route_id": "156", "route_code": 1, "stop_name": "Lasalle & Quincy", "stop_id": 14061, "stop_lat": 41.878669, "stop_lon": -87.632213, "heading_degrees": 0, "transfer_to_route_id": "Brown*;Orange*;Pink*;Purple*", "stop_type": "bus", "parent_stop_id": 14061, "route": "156"}, {"route_id": "156", "route_code": 1, "stop_name": "Lasalle & Randolph", "stop_id": 4975, "stop_lat": 41.884261, "stop_lon": -87.632335, "heading_degrees": 0, "transfer_to_route_id": NaN, "stop_type": "bus", "parent_stop_id": 4975, "route": "156"}, {"route_id": "156", "route_code": 1, "stop_name": "Lasalle & Schiller", "stop_id": 1448, "stop_lat": 41.908024, "stop_lon": -87.632948, "heading_degrees": 358, "transfer_to_route_id": NaN, "stop_type": "bus", "parent_stop_id": 1448, "route": "156"}, {"route_id": "156", "route_code": 1, "stop_name": "Lasalle & Wacker/Lake", "stop_id": 15904, "stop_lat": 41.886491, "stop_lon": -87.632323, "heading_degrees": 356, "transfer_to_route_id": "135-North^+;135-South^+;136-North^+;136-South^+;Blue*;Brown*;Green*;Orange*;Pink*;Purple*", "stop_type": "bus", "parent_stop_id": 15904, "route": "156"}, {"route_id": "156", "route_code": 1, "stop_name": "Sheridan & Barry", "stop_id": 1152, "stop_lat": 41.938068, "stop_lon": -87.639418, "heading_degrees": 359, "transfer_to_route_id": NaN, "stop_type": "bus", "parent_stop_id": 1152, "route": "156"}, {"route_id": "156", "route_code": 1, "stop_name": "Sheridan & Briar", "stop_id": 1153, "stop_lat": 41.938609, "stop_lon": -87.639434, "heading_degrees": 0, "transfer_to_route_id": "134-North^+;134-South^+;143-North^+;143-South^+", "stop_type": "bus", "parent_stop_id": 1153, "route": "156"}, {"route_id": "156", "route_code": 1, "stop_name": "Sheridan & Diversey", "stop_id": 1148, "stop_lat": 41.93333, "stop_lon": -87.639232, "heading_degrees": 0, "transfer_to_route_id": "76-West^;77-West^", "stop_type": "bus", "parent_stop_id": 1148, "route": "156"}, {"route_id": "156", "route_code": 1, "stop_name": "Sheridan & Oakdale", "stop_id": 1150, "stop_lat": 41.935869, "stop_lon": -87.639342, "heading_degrees": 358, "transfer_to_route_id": NaN, "stop_type": "bus", "parent_stop_id": 1150, "route": "156"}, {"route_id": "156", "route_code": 1, "stop_name": "Sheridan & Surf", "stop_id": 1149, "stop_lat": 41.934695, "stop_lon": -87.639289, "heading_degrees": 358, "transfer_to_route_id": NaN, "stop_type": "bus", "parent_stop_id": 1149, "route": "156"}, {"route_id": "156", "route_code": 1, "stop_name": "Sheridan & Wellington", "stop_id": 1151, "stop_lat": 41.936853, "stop_lon": -87.639375, "heading_degrees": 0, "transfer_to_route_id": NaN, "stop_type": "bus", "parent_stop_id": 1151, "route": "156"}, {"route_id": "156", "route_code": 1, "stop_name": "Stockton & Arlington", "stop_id": 1145, "stop_lat": 41.926583, "stop_lon": -87.637641, "heading_degrees": 308, "transfer_to_route_id": "143-North^+;143-South^+", "stop_type": "bus", "parent_stop_id": 1145, "route": "156"}, {"route_id": "156", "route_code": 1, "stop_name": "Stockton & Armitage", "stop_id": 1141, "stop_lat": 41.918172, "stop_lon": -87.634382, "heading_degrees": 347, "transfer_to_route_id": NaN, "stop_type": "bus", "parent_stop_id": 1141, "route": "156"}, {"route_id": "156", "route_code": 1, "stop_name": "Stockton & Dickens", "stop_id": 1142, "stop_lat": 41.920358, "stop_lon": -87.635557, "heading_degrees": 350, "transfer_to_route_id": NaN, "stop_type": "bus", "parent_stop_id": 1142, "route": "156"}, {"route_id": "156", "route_code": 1, "stop_name": "Stockton & Fullerton", "stop_id": 1144, "stop_lat": 41.925308, "stop_lon": -87.635827, "heading_degrees": 349, "transfer_to_route_id": NaN, "stop_type": "bus", "parent_stop_id": 1144, "route": "156"}, {"route_id": "156", "route_code": 1, "stop_name": "Stockton & Lasalle", "stop_id": 1139, "stop_lat": 41.913792, "stop_lon": -87.631706, "heading_degrees": 352, "transfer_to_route_id": NaN, "stop_type": "bus", "parent_stop_id": 1139, "route": "156"}, {"route_id": "156", "route_code": 1, "stop_name": "Stockton & Lincoln", "stop_id": 1140, "stop_lat": 41.915883, "stop_lon": -87.633237, "heading_degrees": 318, "transfer_to_route_id": NaN, "stop_type": "bus", "parent_stop_id": 1140, "route": "156"}, {"route_id": "156", "route_code": 1, "stop_name": "Stockton & Roslyn", "stop_id": 1146, "stop_lat": 41.92778, "stop_lon": -87.638657, "heading_degrees": 0, "transfer_to_route_id": NaN, "stop_type": "bus", "parent_stop_id": 1146, "route": "156"}, {"route_id": "156", "route_code": 1, "stop_name": "Stockton & Webster", "stop_id": 1143, "stop_lat": 41.921605, "stop_lon": -87.635588, "heading_degrees": 351, "transfer_to_route_id": NaN, "stop_type": "bus", "parent_stop_id": 1143, "route": "156"}, {"route_id": "156", "route_code": 1, "stop_name": "Stockton & Wrightwood", "stop_id": 1147, "stop_lat": 41.93127, "stop_lon": -87.638897, "heading_degrees": 351, "transfer_to_route_id": NaN, "stop_type": "bus", "parent_stop_id": 1147, "route": "156"}, {"route_id": "156", "route_code": 1, "stop_name": "Union Station Transit Center", "stop_id": 18250, "stop_lat": 41.877677, "stop_lon": -87.639994, "heading_degrees": 137, "transfer_to_route_id": "1-South^;121-North^+;121-South^+;151-North^;151-South^;28-North^;28-South^", "stop_type": "bus", "parent_stop_id": 18250, "route": "156"}, {"route_id": "156", "route_code": 2, "stop_name": "320 N Lasalle", "stop_id": 4963, "stop_lat": 41.888498, "stop_lon": -87.632653, "heading_degrees": 172, "transfer_to_route_id": "Brown*;Purple*", "stop_type": "bus", "parent_stop_id": 4963, "route": "156"}, {"route_id": "156", "route_code": 2, "stop_name": "Adams & S. Wacker", "stop_id": 1108, "stop_lat": 41.879421, "stop_lon": -87.636527, "heading_degrees": 270, "transfer_to_route_id": "1-North^;121-South^+;126-West^;130-West^;134-South^+;135-South^+;136-South^+;7-West^", "stop_type": "bus", "parent_stop_id": 1108, "route": "156"}, {"route_id": "156", "route_code": 2, "stop_name": "Adams & Wells", "stop_id": 80, "stop_lat": 41.879439, "stop_lon": -87.634241, "heading_degrees": 270, "transfer_to_route_id": "1-North^;126-West^;130-West^;28-North^;37-South^;7-West^;Brown*;Orange*;Pink*;Purple*", "stop_type": "bus", "parent_stop_id": 80, "route": "156"}, {"route_id": "156", "route_code": 2, "stop_name": "Belmont & Broadway", "stop_id": 14914, "stop_lat": 41.939993, "stop_lon": -87.644068, "heading_degrees": 90, "transfer_to_route_id": "36-North^;36-South^", "stop_type": "bus", "parent_stop_id": 14914, "route": "156"}, {"route_id": "156", "route_code": 2, "stop_name": "Belmont & Halsted Terminal", "stop_id": 14150, "stop_lat": 41.940207, "stop_lon": -87.648788, "heading_degrees": 178, "transfer_to_route_id": "151-North^;151-South^;77-East^;77-West^;8-North^", "stop_type": "bus", "parent_stop_id": 14150, "route": "156"}, {"route_id": "156", "route_code": 2, "stop_name": "Belmont & Orchard", "stop_id": 4987, "stop_lat": 41.939965, "stop_lon": -87.647, "heading_degrees": 89, "transfer_to_route_id": NaN, "stop_type": "bus", "parent_stop_id": 4987, "route": "156"}, {"route_id": "156", "route_code": 2, "stop_name": "Belmont & Pine Grove", "stop_id": 4990, "stop_lat": 41.940031, "stop_lon": -87.642114, "heading_degrees": 87, "transfer_to_route_id": NaN, "stop_type": "bus", "parent_stop_id": 4990, "route": "156"}, {"route_id": "156", "route_code": 2, "stop_name": "Belmont & Sheridan", "stop_id": 9291, "stop_lat": 41.940053, "stop_lon": -87.639759, "heading_degrees": 80, "transfer_to_route_id": "134-North^+;143-North^+;77-East^", "stop_type": "bus", "parent_stop_id": 9291, "route": "156"}, {"route_id": "156", "route_code": 2, "stop_name": "Lasalle & Adams", "stop_id": 4970, "stop_lat": 41.879548, "stop_lon": -87.632351, "heading_degrees": 180, "transfer_to_route_id": NaN, "stop_type": "bus", "parent_stop_id": 4970, "route": "156"}, {"route_id": "156", "route_code": 2, "stop_name": "Lasalle & Burton", "stop_id": 1412, "stop_lat": 41.908899, "stop_lon": -87.633192, "heading_degrees": 179, "transfer_to_route_id": NaN, "stop_type": "bus", "parent_stop_id": 1412, "route": "156"}, {"route_id": "156", "route_code": 2, "stop_name": "Lasalle & Chestnut", "stop_id": 1419, "stop_lat": 41.897907, "stop_lon": -87.632865, "heading_degrees": 175, "transfer_to_route_id": NaN, "stop_type": "bus", "parent_stop_id": 1419, "route": "156"}, {"route_id": "156", "route_code": 2, "stop_name": "Lasalle & Chicago", "stop_id": 4957, "stop_lat": 41.896254, "stop_lon": -87.632827, "heading_degrees": 179, "transfer_to_route_id": "66-East^", "stop_type": "bus", "parent_stop_id": 4957, "route": "156"}, {"route_id": "156", "route_code": 2, "stop_name": "Lasalle & Delaware", "stop_id": 1418, "stop_lat": 41.898933, "stop_lon": -87.632905, "heading_degrees": 163, "transfer_to_route_id": NaN, "stop_type": "bus", "parent_stop_id": 1418, "route": "156"}, {"route_id": "157", "route_code": 4, "stop_name": "Taylor & Loomis", "stop_id": 6632, "stop_lat": 41.869418, "stop_lon": -87.661495, "heading_degrees": 270, "transfer_to_route_id": NaN, "stop_type": "bus", "parent_stop_id": 6632, "route": "157"}, {"route_id": "157", "route_code": 4, "stop_name": "Taylor & Morgan", "stop_id": 6628, "stop_lat": 41.869574, "stop_lon": -87.651512, "heading_degrees": 270, "transfer_to_route_id": NaN, "stop_type": "bus", "parent_stop_id": 6628, "route": "157"}, {"route_id": "157", "route_code": 4, "stop_name": "Taylor & Oakley", "stop_id": 6644, "stop_lat": 41.869088, "stop_lon": -87.683471, "heading_degrees": 269, "transfer_to_route_id": NaN, "stop_type": "bus", "parent_stop_id": 6644, "route": "157"}, {"route_id": "157", "route_code": 4, "stop_name": "Taylor & Paulina", "stop_id": 6636, "stop_lat": 41.869377, "stop_lon": -87.66865, "heading_degrees": 299, "transfer_to_route_id": NaN, "stop_type": "bus", "parent_stop_id": 6636, "route": "157"}, {"route_id": "157", "route_code": 4, "stop_name": "Taylor & Racine", "stop_id": 15811, "stop_lat": 41.869472, "stop_lon": -87.657095, "heading_degrees": 270, "transfer_to_route_id": "60-East^;60-West^", "stop_type": "bus", "parent_stop_id": 15811, "route": "157"}, {"route_id": "157", "route_code": 4, "stop_name": "Taylor & Throop", "stop_id": 6631, "stop_lat": 41.869445, "stop_lon": -87.659043, "heading_degrees": 268, "transfer_to_route_id": NaN, "stop_type": "bus", "parent_stop_id": 6631, "route": "157"}, {"route_id": "157", "route_code": 4, "stop_name": "Western & Roosevelt", "stop_id": 14554, "stop_lat": 41.866242, "stop_lon": -87.686166, "heading_degrees": 177, "transfer_to_route_id": "12-East^;49-North^;49-South^;X49-North^+;X49-South^+", "stop_type": "bus", "parent_stop_id": 14554, "route": "157"}, {"route_id": "165", "route_code": 3, "stop_name": "5133 W 65th Street", "stop_id": 3372, "stop_lat": 41.774533, "stop_lon": -87.750077, "heading_degrees": 87, "transfer_to_route_id": NaN, "stop_type": "bus", "parent_stop_id": 3372, "route": "165"}, {"route_id": "165", "route_code": 3, "stop_name": "6201 S Cicero", "stop_id": 10389, "stop_lat": 41.780114, "stop_lon": -87.7422, "heading_degrees": 358, "transfer_to_route_id": NaN, "stop_type": "bus", "parent_stop_id": 10389, "route": "165"}, {"route_id": "165", "route_code": 3, "stop_name": "65th Street & Austin", "stop_id": 3363, "stop_lat": 41.774126, "stop_lon": -87.771605, "heading_degrees": 89, "transfer_to_route_id": "55A-East^;55A-West^", "stop_type": "bus", "parent_stop_id": 3363, "route": "165"}, {"route_id": "165", "route_code": 3, "stop_name": "65th Street & Central", "stop_id": 3367, "stop_lat": 41.774321, "stop_lon": -87.761759, "heading_degrees": 90, "transfer_to_route_id": NaN, "stop_type": "bus", "parent_stop_id": 3367, "route": "165"}, {"route_id": "165", "route_code": 3, "stop_name": "65th Street & Harlem", "stop_id": 3350, "stop_lat": 41.773623, "stop_lon": -87.800433, "heading_degrees": 90, "transfer_to_route_id": NaN, "stop_type": "bus", "parent_stop_id": 3350, "route": "165"}, {"route_id": "165", "route_code": 3, "stop_name": "65th Street & Lamon", "stop_id": 3375, "stop_lat": 41.774638, "stop_lon": -87.744752, "heading_degrees": 89, "transfer_to_route_id": NaN, "stop_type": "bus", "parent_stop_id": 3375, "route": "165"}, {"route_id": "165", "route_code": 3, "stop_name": "65th Street & Laramie", "stop_id": 3371, "stop_lat": 41.774497, "stop_lon": -87.752028, "heading_degrees": 90, "transfer_to_route_id": NaN, "stop_type": "bus", "parent_stop_id": 3371, "route": "165"}, {"route_id": "165", "route_code": 3, "stop_name": "65th Street & Lavergne ", "stop_id": 3374, "stop_lat": 41.774596, "stop_lon": -87.747196, "heading_degrees": 88, "transfer_to_route_id": NaN, "stop_type": "bus", "parent_stop_id": 3374, "route": "165"}, {"route_id": "165", "route_code": 3, "stop_name": "65th Street & Linder", "stop_id": 3368, "stop_lat": 41.774361, "stop_lon": -87.758751, "heading_degrees": 88, "transfer_to_route_id": NaN, "stop_type": "bus", "parent_stop_id": 3368, "route": "165"}, {"route_id": "165", "route_code": 3, "stop_name": "65th Street & Lockwood", "stop_id": 3370, "stop_lat": 41.774457, "stop_lon": -87.754226, "heading_degrees": 90, "transfer_to_route_id": NaN, "stop_type": "bus", "parent_stop_id": 3370, "route": "165"}, {"route_id": "165", "route_code": 3, "stop_name": "65th Street & Long", "stop_id": 3369, "stop_lat": 41.774417, "stop_lon": -87.75687, "heading_degrees": 87, "transfer_to_route_id": NaN, "stop_type": "bus", "parent_stop_id": 3369, "route": "165"}, {"route_id": "165", "route_code": 3, "stop_name": "65th Street & Major ", "stop_id": 3366, "stop_lat": 41.77429, "stop_lon": -87.763845, "heading_degrees": 90, "transfer_to_route_id": NaN, "stop_type": "bus", "parent_stop_id": 3366, "route": "165"}, {"route_id": "165", "route_code": 3, "stop_name": "65th Street & Mayfield", "stop_id": 3364, "stop_lat": 41.774187, "stop_lon": -87.769082, "heading_degrees": 88, "transfer_to_route_id": NaN, "stop_type": "bus", "parent_stop_id": 3364, "route": "165"}, {"route_id": "165", "route_code": 3, "stop_name": "65th Street & Meade", "stop_id": 3362, "stop_lat": 41.774085, "stop_lon": -87.774161, "heading_degrees": 89, "transfer_to_route_id": NaN, "stop_type": "bus", "parent_stop_id": 3362, "route": "165"}, {"route_id": "165", "route_code": 3, "stop_name": "65th Street & Melvina", "stop_id": 17871, "stop_lat": 41.774051, "stop_lon": -87.775815, "heading_degrees": 86, "transfer_to_route_id": NaN, "stop_type": "bus", "parent_stop_id": 17871, "route": "165"}, {"route_id": "165", "route_code": 3, "stop_name": "65th Street & Menard", "stop_id": 3365, "stop_lat": 41.774237, "stop_lon": -87.766369, "heading_degrees": 82, "transfer_to_route_id": NaN, "stop_type": "bus", "parent_stop_id": 3365, "route": "165"}, {"route_id": "165", "route_code": 3, "stop_name": "65th Street & Mobile", "stop_id": 3360, "stop_lat": 41.773986, "stop_lon": -87.77898, "heading_degrees": 87, "transfer_to_route_id": NaN, "stop_type": "bus", "parent_stop_id": 3360, "route": "165"}, {"route_id": "165", "route_code": 3, "stop_name": "65th Street & Narragansett", "stop_id": 3359, "stop_lat": 41.773948, "stop_lon": -87.780707, "heading_degrees": 88, "transfer_to_route_id": NaN, "stop_type": "bus", "parent_stop_id": 3359, "route": "165"}, {"route_id": "165", "route_code": 3, "stop_name": "65th Street & Nashville", "stop_id": 3357, "stop_lat": 41.773867, "stop_lon": -87.786196, "heading_degrees": 90, "transfer_to_route_id": NaN, "stop_type": "bus", "parent_stop_id": 3357, "route": "165"}, {"route_id": "165", "route_code": 3, "stop_name": "65th Street & Natchez", "stop_id": 3358, "stop_lat": 41.773904, "stop_lon": -87.783687, "heading_degrees": 90, "transfer_to_route_id": NaN, "stop_type": "bus", "parent_stop_id": 3358, "route": "165"}, {"route_id": "165", "route_code": 3, "stop_name": "65th Street & Normandy", "stop_id": 3356, "stop_lat": 41.77383, "stop_lon": -87.7885, "heading_degrees": 89, "transfer_to_route_id": NaN, "stop_type": "bus", "parent_stop_id": 3356, "route": "165"}, {"route_id": "165", "route_code": 3, "stop_name": "65th Street & Nottingham", "stop_id": 3351, "stop_lat": 41.773668, "stop_lon": -87.79848, "heading_degrees": 89, "transfer_to_route_id": NaN, "stop_type": "bus", "parent_stop_id": 3351, "route": "165"}, {"route_id": "165", "route_code": 3, "stop_name": "65th Street & Oak Park", "stop_id": 3355, "stop_lat": 41.773778, "stop_lon": -87.791077, "heading_degrees": 90, "transfer_to_route_id": NaN, "stop_type": "bus", "parent_stop_id": 3355, "route": "165"}, {"route_id": "165", "route_code": 3, "stop_name": "65th Street & Sayre", "stop_id": 3352, "stop_lat": 41.773707, "stop_lon": -87.79606, "heading_degrees": 89, "transfer_to_route_id": NaN, "stop_type": "bus", "parent_stop_id": 3352, "route": "165"}, {"route_id": "165", "route_code": 3, "stop_name": "6900 W 65th Street", "stop_id": 3353, "stop_lat": 41.77374, "stop_lon": -87.794012, "heading_degrees": 88, "transfer_to_route_id": NaN, "stop_type": "bus", "parent_stop_id": 3353, "route": "165"}, {"route_id": "165", "route_code": 3, "stop_name": "Cicero & 61st Street", "stop_id": 4601, "stop_lat": 41.781995, "stop_lon": -87.742242, "heading_degrees": 358, "transfer_to_route_id": NaN, "stop_type": "bus", "parent_stop_id": 4601, "route": "165"}, {"route_id": "165", "route_code": 3, "stop_name": "Cicero & 63rd Street", "stop_id": 4600, "stop_lat": 41.778249, "stop_lon": -87.742122, "heading_degrees": 358, "transfer_to_route_id": "63-East^;63-West^", "stop_type": "bus", "parent_stop_id": 4600, "route": "165"}, {"route_id": "165", "route_code": 3, "stop_name": "Cicero & 64th Street", "stop_id": 3377, "stop_lat": 41.776509, "stop_lon": -87.742076, "heading_degrees": 359, "transfer_to_route_id": "54B-North^;54B-South^", "stop_type": "bus", "parent_stop_id": 3377, "route": "165"}, {"route_id": "165", "route_code": 3, "stop_name": "Harlem & 64th Place ", "stop_id": 14175, "stop_lat": 41.774835, "stop_lon": -87.800992, "heading_degrees": 132, "transfer_to_route_id": "63W-East^;63W-West^", "stop_type": "bus", "parent_stop_id": 14175, "route": "165"}, {"route_id": "165", "route_code": 3, "stop_name": "Midway Orange Line Station", "stop_id": 14116, "stop_lat": 41.786314, "stop_lon": -87.738878, "heading_degrees": 301, "transfer_to_route_id": "47-East^;47-West^;54B-North^;54B-South^;55-East^;55-West^;55A-East^;55A-West^;55N-East^;55N-West^;59-East^;59-West^;62-North^;62-South^;62H-East^;62H-West^;63-East^;63-West^;63W-East^;63W-West^;Orange*", "stop_type": "bus", "parent_stop_id": 14116, "route": "165"}, {"route_id": "165", "route_code": 4, "stop_name": "5133 W 65th Street", "stop_id": 3325, "stop_lat": 41.77471, "stop_lon": -87.750067, "heading_degrees": 268, "transfer_to_route_id": NaN, "stop_type": "bus", "parent_stop_id": 3325, "route": "165"}, {"route_id": "165", "route_code": 4, "stop_name": "6200 S Cicero", "stop_id": 10358, "stop_lat": 41.780355, "stop_lon": -87.742501, "heading_degrees": 179, "transfer_to_route_id": "63-East^", "stop_type": "bus", "parent_stop_id": 10358, "route": "165"}, {"route_id": "165", "route_code": 4, "stop_name": "65th Street & Austin", "stop_id": 3334, "stop_lat": 41.774305, "stop_lon": -87.771224, "heading_degrees": 266, "transfer_to_route_id": "55A-East^;55A-West^", "stop_type": "bus", "parent_stop_id": 3334, "route": "165"}, {"route_id": "165", "route_code": 4, "stop_name": "65th Street & Central", "stop_id": 3330, "stop_lat": 41.774502, "stop_lon": -87.76143, "heading_degrees": 267, "transfer_to_route_id": NaN, "stop_type": "bus", "parent_stop_id": 3330, "route": "165"}, {"route_id": "165", "route_code": 4, "stop_name": "65th Street & Harlem", "stop_id": 3348, "stop_lat": 41.773804, "stop_lon": -87.800619, "heading_degrees": 270, "transfer_to_route_id": NaN, "stop_type": "bus", "parent_stop_id": 3348, "route": "165"}, {"route_id": "165", "route_code": 4, "stop_name": "65th Street & Lamon", "stop_id": 3322, "stop_lat": 41.77482, "stop_lon": -87.744467, "heading_degrees": 268, "transfer_to_route_id": NaN, "stop_type": "bus", "parent_stop_id": 3322, "route": "165"}, {"route_id": "165", "route_code": 4, "stop_name": "65th Street & Laramie", "stop_id": 3326, "stop_lat": 41.774676, "stop_lon": -87.751957, "heading_degrees": 270, "transfer_to_route_id": NaN, "stop_type": "bus", "parent_stop_id": 3326, "route": "165"}, {"route_id": "165", "route_code": 4, "stop_name": "65th Street & Lavergne ", "stop_id": 3323, "stop_lat": 41.774769, "stop_lon": -87.746901, "heading_degrees": 270, "transfer_to_route_id": NaN, "stop_type": "bus", "parent_stop_id": 3323, "route": "165"}, {"route_id": "165", "route_code": 4, "stop_name": "65th Street & Leclaire", "stop_id": 3324, "stop_lat": 41.774729, "stop_lon": -87.74878, "heading_degrees": 269, "transfer_to_route_id": NaN, "stop_type": "bus", "parent_stop_id": 3324, "route": "165"}, {"route_id": "165", "route_code": 4, "stop_name": "65th Street & Linder", "stop_id": 3329, "stop_lat": 41.774544, "stop_lon": -87.759013, "heading_degrees": 269, "transfer_to_route_id": NaN, "stop_type": "bus", "parent_stop_id": 3329, "route": "165"}, {"route_id": "165", "route_code": 4, "stop_name": "65th Street & Lockwood", "stop_id": 3327, "stop_lat": 41.774635, "stop_lon": -87.754309, "heading_degrees": 269, "transfer_to_route_id": NaN, "stop_type": "bus", "parent_stop_id": 3327, "route": "165"}, {"route_id": "165", "route_code": 4, "stop_name": "65th Street & Long", "stop_id": 3328, "stop_lat": 41.774589, "stop_lon": -87.756582, "heading_degrees": 266, "transfer_to_route_id": NaN, "stop_type": "bus", "parent_stop_id": 3328, "route": "165"}, {"route_id": "165", "route_code": 4, "stop_name": "65th Street & Major ", "stop_id": 3331, "stop_lat": 41.774453, "stop_lon": -87.763883, "heading_degrees": 270, "transfer_to_route_id": NaN, "stop_type": "bus", "parent_stop_id": 3331, "route": "165"}, {"route_id": "165", "route_code": 4, "stop_name": "65th Street & Mayfield", "stop_id": 3333, "stop_lat": 41.77436, "stop_lon": -87.768792, "heading_degrees": 265, "transfer_to_route_id": NaN, "stop_type": "bus", "parent_stop_id": 3333, "route": "165"}, {"route_id": "165", "route_code": 4, "stop_name": "65th Street & Meade", "stop_id": 3335, "stop_lat": 41.774267, "stop_lon": -87.773659, "heading_degrees": 270, "transfer_to_route_id": NaN, "stop_type": "bus", "parent_stop_id": 3335, "route": "165"}, {"route_id": "165", "route_code": 4, "stop_name": "65th Street & Melvina", "stop_id": 3336, "stop_lat": 41.774215, "stop_lon": -87.776124, "heading_degrees": 270, "transfer_to_route_id": NaN, "stop_type": "bus", "parent_stop_id": 3336, "route": "165"}, {"route_id": "165", "route_code": 4, "stop_name": "65th Street & Menard", "stop_id": 3332, "stop_lat": 41.774403, "stop_lon": -87.766338, "heading_degrees": 270, "transfer_to_route_id": NaN, "stop_type": "bus", "parent_stop_id": 3332, "route": "165"}, {"route_id": "165", "route_code": 4, "stop_name": "65th Street & Mobile", "stop_id": 3337, "stop_lat": 41.774173, "stop_lon": -87.778534, "heading_degrees": 268, "transfer_to_route_id": NaN, "stop_type": "bus", "parent_stop_id": 3337, "route": "165"}, {"route_id": "165", "route_code": 4, "stop_name": "65th Street & Narragansett", "stop_id": 3338, "stop_lat": 41.774118, "stop_lon": -87.780985, "heading_degrees": 270, "transfer_to_route_id": NaN, "stop_type": "bus", "parent_stop_id": 3338, "route": "165"}, {"route_id": "165", "route_code": 4, "stop_name": "65th Street & Nashville", "stop_id": 3341, "stop_lat": 41.774047, "stop_lon": -87.785723, "heading_degrees": 266, "transfer_to_route_id": NaN, "stop_type": "bus", "parent_stop_id": 3341, "route": "165"}, {"route_id": "165", "route_code": 4, "stop_name": "65th Street & Natchez", "stop_id": 3340, "stop_lat": 41.774077, "stop_lon": -87.783438, "heading_degrees": 269, "transfer_to_route_id": NaN, "stop_type": "bus", "parent_stop_id": 3340, "route": "165"}, {"route_id": "165", "route_code": 4, "stop_name": "65th Street & New England", "stop_id": 3345, "stop_lat": 41.77391, "stop_lon": -87.793803, "heading_degrees": 264, "transfer_to_route_id": NaN, "stop_type": "bus", "parent_stop_id": 3345, "route": "165"}, {"route_id": "165", "route_code": 4, "stop_name": "65th Street & Normandy", "stop_id": 3342, "stop_lat": 41.774, "stop_lon": -87.788308, "heading_degrees": 269, "transfer_to_route_id": NaN, "stop_type": "bus", "parent_stop_id": 3342, "route": "165"}, {"route_id": "165", "route_code": 4, "stop_name": "65th Street & Nottingham", "stop_id": 3347, "stop_lat": 41.773843, "stop_lon": -87.79815, "heading_degrees": 270, "transfer_to_route_id": NaN, "stop_type": "bus", "parent_stop_id": 3347, "route": "165"}, {"route_id": "165", "route_code": 4, "stop_name": "65th Street & Oak Park", "stop_id": 3343, "stop_lat": 41.773962, "stop_lon": -87.790725, "heading_degrees": 268, "transfer_to_route_id": NaN, "stop_type": "bus", "parent_stop_id": 3343, "route": "165"}, {"route_id": "165", "route_code": 4, "stop_name": "65th Street & Sayre", "stop_id": 3346, "stop_lat": 41.773882, "stop_lon": -87.79566, "heading_degrees": 268, "transfer_to_route_id": NaN, "stop_type": "bus", "parent_stop_id": 3346, "route": "165"}, {"route_id": "165", "route_code": 4, "stop_name": "Cicero & 61st Street", "stop_id": 4611, "stop_lat": 41.782229, "stop_lon": -87.742567, "heading_degrees": 175, "transfer_to_route_id": NaN, "stop_type": "bus", "parent_stop_id": 4611, "route": "165"}, {"route_id": "165", "route_code": 4, "stop_name": "Cicero & 63rd Street", "stop_id": 4612, "stop_lat": 41.778632, "stop_lon": -87.742476, "heading_degrees": 178, "transfer_to_route_id": "63-West^", "stop_type": "bus", "parent_stop_id": 4612, "route": "165"}, {"route_id": "165", "route_code": 4, "stop_name": "Cicero & 64th Street", "stop_id": 3320, "stop_lat": 41.776736, "stop_lon": -87.742406, "heading_degrees": 178, "transfer_to_route_id": "54B-South^", "stop_type": "bus", "parent_stop_id": 3320, "route": "165"}, {"route_id": "165", "route_code": 4, "stop_name": "Cicero & 65th Street", "stop_id": 3321, "stop_lat": 41.775032, "stop_lon": -87.742389, "heading_degrees": 180, "transfer_to_route_id": "54B-North^", "stop_type": "bus", "parent_stop_id": 3321, "route": "165"}, {"route_id": "165", "route_code": 4, "stop_name": "Harlem & 64th Place ", "stop_id": 14175, "stop_lat": 41.774835, "stop_lon": -87.800992, "heading_degrees": 132, "transfer_to_route_id": "63W-East^;63W-West^", "stop_type": "bus", "parent_stop_id": 14175, "route": "165"}, {"route_id": "165", "route_code": 4, "stop_name": "Midway Orange Line Station", "stop_id": 14116, "stop_lat": 41.786314, "stop_lon": -87.738878, "heading_degrees": 301, "transfer_to_route_id": "47-East^;47-West^;54B-North^;54B-South^;55-East^;55-West^;55A-East^;55A-West^;55N-East^;55N-West^;59-East^;59-West^;62-North^;62-South^;62H-East^;62H-West^;63-East^;63-West^;63W-East^;63W-West^;Orange*", "stop_type": "bus", "parent_stop_id": 14116, "route": "165"}, {"route_id": "169", "route_code": 3, "stop_name": "69th Street & State (Red Line)", "stop_id": 8629, "stop_lat": 41.76901, "stop_lon": -87.625385, "heading_degrees": 99, "transfer_to_route_id": "29-North^;29-South^;30-North^;30-South^;5-East^;5-West^;67-East^;67-West^;95-East^;95-West^;Red*", "stop_type": "bus", "parent_stop_id": 8629, "route": "169"}, {"route_id": "169", "route_code": 3, "stop_name": "69th Street & Wentworth", "stop_id": 10176, "stop_lat": 41.769006, "stop_lon": -87.630146, "heading_degrees": 90, "transfer_to_route_id": "24-North^;24-South^", "stop_type": "bus", "parent_stop_id": 10176, "route": "169"}, {"route_id": "169", "route_code": 3, "stop_name": "79th Street & Ashland", "stop_id": 2754, "stop_lat": 41.750297, "stop_lon": -87.66366, "heading_degrees": 90, "transfer_to_route_id": "9-North^;9-South^;X9-North^+;X9-South^+", "stop_type": "bus", "parent_stop_id": 2754, "route": "169"}, {"route_id": "169", "route_code": 3, "stop_name": "79th Street & Cicero", "stop_id": 2716, "stop_lat": 41.749058, "stop_lon": -87.740582, "heading_degrees": 90, "transfer_to_route_id": "79-East^;79-West^", "stop_type": "bus", "parent_stop_id": 2716, "route": "169"}, {"route_id": "169", "route_code": 3, "stop_name": "79th Street & Kedzie", "stop_id": 2737, "stop_lat": 41.749692, "stop_lon": -87.702657, "heading_degrees": 90, "transfer_to_route_id": "52A-North^;52A-South^", "stop_type": "bus", "parent_stop_id": 2737, "route": "169"}, {"route_id": "169", "route_code": 3, "stop_name": "79th Street & Pulaski", "stop_id": 2728, "stop_lat": 41.749415, "stop_lon": -87.721379, "heading_degrees": 90, "transfer_to_route_id": "53A-North^", "stop_type": "bus", "parent_stop_id": 2728, "route": "169"}, {"route_id": "169", "route_code": 3, "stop_name": "79th Street & Western", "stop_id": 8630, "stop_lat": 41.750015, "stop_lon": -87.683018, "heading_degrees": 90, "transfer_to_route_id": NaN, "stop_type": "bus", "parent_stop_id": 8630, "route": "169"}, {"route_id": "169", "route_code": 3, "stop_name": "Halsted & 69th Street", "stop_id": 5875, "stop_lat": 41.768565, "stop_lon": -87.644522, "heading_degrees": 61, "transfer_to_route_id": "67-East^;67-West^;8-South^", "stop_type": "bus", "parent_stop_id": 5875, "route": "169"}, {"route_id": "169", "route_code": 3, "stop_name": "Halsted & 79th Street", "stop_id": 17510, "stop_lat": 41.750982, "stop_lon": -87.643962, "heading_degrees": 359, "transfer_to_route_id": "79-East^;79-West^;8-North^;8-South^", "stop_type": "bus", "parent_stop_id": 17510, "route": "169"}, {"route_id": "169", "route_code": 3, "stop_name": "Ups Facility Stop 2", "stop_id": 8628, "stop_lat": 41.750285, "stop_lon": -87.882018, "heading_degrees": 32, "transfer_to_route_id": NaN, "stop_type": "bus", "parent_stop_id": 8628, "route": "169"}, {"route_id": "169", "route_code": 4, "stop_name": "69th Street & State (Red Line)", "stop_id": 8629, "stop_lat": 41.76901, "stop_lon": -87.625385, "heading_degrees": 99, "transfer_to_route_id": "29-North^;29-South^;30-North^;30-South^;5-East^;5-West^;67-East^;67-West^;95-East^;95-West^;Red*", "stop_type": "bus", "parent_stop_id": 8629, "route": "169"}, {"route_id": "169", "route_code": 4, "stop_name": "69th Street & Wentworth", "stop_id": 10088, "stop_lat": 41.769153, "stop_lon": -87.629692, "heading_degrees": 267, "transfer_to_route_id": "24-North^;24-South^", "stop_type": "bus", "parent_stop_id": 10088, "route": "169"}, {"route_id": "169", "route_code": 4, "stop_name": "79th Street & Ashland", "stop_id": 2661, "stop_lat": 41.750433, "stop_lon": -87.66323, "heading_degrees": 268, "transfer_to_route_id": "9-North^;9-South^;X9-North^+;X9-South^+", "stop_type": "bus", "parent_stop_id": 2661, "route": "169"}, {"route_id": "169", "route_code": 4, "stop_name": "79th Street & Cicero", "stop_id": 2698, "stop_lat": 41.74931, "stop_lon": -87.741033, "heading_degrees": 267, "transfer_to_route_id": "79-East^;79-West^", "stop_type": "bus", "parent_stop_id": 2698, "route": "169"}, {"route_id": "169", "route_code": 4, "stop_name": "79th Street & Kedzie", "stop_id": 2679, "stop_lat": 41.749878, "stop_lon": -87.702205, "heading_degrees": 270, "transfer_to_route_id": "52A-North^;52A-South^", "stop_type": "bus", "parent_stop_id": 2679, "route": "169"}, {"route_id": "169", "route_code": 4, "stop_name": "79th Street & Pulaski", "stop_id": 2689, "stop_lat": 41.749627, "stop_lon": -87.721689, "heading_degrees": 270, "transfer_to_route_id": "53A-North^", "stop_type": "bus", "parent_stop_id": 2689, "route": "169"}, {"route_id": "169", "route_code": 4, "stop_name": "79th Street & Western", "stop_id": 2670, "stop_lat": 41.750205, "stop_lon": -87.682646, "heading_degrees": 301, "transfer_to_route_id": NaN, "stop_type": "bus", "parent_stop_id": 2670, "route": "169"}, {"route_id": "169", "route_code": 4, "stop_name": "Halsted & 69th Street", "stop_id": 14496, "stop_lat": 41.768389, "stop_lon": -87.644593, "heading_degrees": 177, "transfer_to_route_id": "67-East^;67-West^;8-South^", "stop_type": "bus", "parent_stop_id": 14496, "route": "169"}, {"route_id": "169", "route_code": 4, "stop_name": "Halsted & 79th Street", "stop_id": 5864, "stop_lat": 41.750765, "stop_lon": -87.64416, "heading_degrees": 178, "transfer_to_route_id": "79-East^;79-West^;8-North^;8-South^", "stop_type": "bus", "parent_stop_id": 5864, "route": "169"}, {"route_id": "169", "route_code": 4, "stop_name": "Ups Facility Stop 1", "stop_id": 8627, "stop_lat": 41.74683, "stop_lon": -87.884674, "heading_degrees": 30, "transfer_to_route_id": NaN, "stop_type": "bus", "parent_stop_id": 8627, "route": "169"}, {"route_id": "169", "route_code": 4, "stop_name": "Ups Facility Stop 2", "stop_id": 8628, "stop_lat": 41.750285, "stop_lon": -87.882018, "heading_degrees": 32, "transfer_to_route_id": NaN, "stop_type": "bus", "parent_stop_id": 8628, "route": "169"}, {"route_id": "171", "route_code": 1, "stop_name": "55th Street & Dorchester", "stop_id": 10561, "stop_lat": 41.79472, "stop_lon": -87.591858, "heading_degrees": 101, "transfer_to_route_id": NaN, "stop_type": "bus", "parent_stop_id": 10561, "route": "171"}, {"route_id": "171", "route_code": 1, "stop_name": "55th Street & Kenwood", "stop_id": 17563, "stop_lat": 41.795036, "stop_lon": -87.592962, "heading_degrees": 90, "transfer_to_route_id": NaN, "stop_type": "bus", "parent_stop_id": 17563, "route": "171"}, {"route_id": "171", "route_code": 1, "stop_name": "55th Street & Lake Park", "stop_id": 10563, "stop_lat": 41.795109, "stop_lon": -87.587858, "heading_degrees": 84, "transfer_to_route_id": "15-North^;15-South^;28-North^;28-South^", "stop_type": "bus", "parent_stop_id": 10563, "route": "171"}, {"route_id": "171", "route_code": 1, "stop_name": "55th Street & Woodlawn", "stop_id": 15752, "stop_lat": 41.795037, "stop_lon": -87.59625, "heading_degrees": 90, "transfer_to_route_id": "172-North^", "stop_type": "bus", "parent_stop_id": 15752, "route": "171"}, {"route_id": "171", "route_code": 1, "stop_name": "59th Street & Kimbark", "stop_id": 13197, "stop_lat": 41.787871, "stop_lon": -87.594547, "heading_degrees": 270, "transfer_to_route_id": "192-South^+", "stop_type": "bus", "parent_stop_id": 13197, "route": "171"}, {"route_id": "171", "route_code": 1, "stop_name": "60th Street & Kenwood", "stop_id": 17902, "stop_lat": 41.786048, "stop_lon": -87.593325, "heading_degrees": 89, "transfer_to_route_id": "2-South^+", "stop_type": "bus", "parent_stop_id": 17902, "route": "171"}, {"route_id": "171", "route_code": 1, "stop_name": "60th Street & University", "stop_id": 14020, "stop_lat": 41.785914, "stop_lon": -87.59742, "heading_degrees": 116, "transfer_to_route_id": "172-North^;172-South^;2-North^+", "stop_type": "bus", "parent_stop_id": 14020, "route": "171"}, {"route_id": "171", "route_code": 1, "stop_name": "60th Street & Woodlawn", "stop_id": 15433, "stop_lat": 41.785966, "stop_lon": -87.596466, "heading_degrees": 87, "transfer_to_route_id": "2-South^+", "stop_type": "bus", "parent_stop_id": 15433, "route": "171"}, {"route_id": "171", "route_code": 1, "stop_name": "Dorchester & 60th Street", "stop_id": 17423, "stop_lat": 41.786327, "stop_lon": -87.591418, "heading_degrees": 0, "transfer_to_route_id": "2-North^+;59-East^", "stop_type": "bus", "parent_stop_id": 17423, "route": "171"}, {"route_id": "171", "route_code": 1, "stop_name": "S Hyde Park & 53rd Street", "stop_id": 1521, "stop_lat": 41.799527, "stop_lon": -87.583932, "heading_degrees": 359, "transfer_to_route_id": "28-North^;28-South^;6-North^+;6-South^+", "stop_type": "bus", "parent_stop_id": 1521, "route": "171"}, {"route_id": "171", "route_code": 1, "stop_name": "S Hyde Park & 54th Street", "stop_id": 1520, "stop_lat": 41.79847, "stop_lon": -87.583915, "heading_degrees": 359, "transfer_to_route_id": NaN, "stop_type": "bus", "parent_stop_id": 1520, "route": "171"}, {"route_id": "171", "route_code": 1, "stop_name": "S Hyde Park & 55th Street", "stop_id": 1518, "stop_lat": 41.795562, "stop_lon": -87.583852, "heading_degrees": 359, "transfer_to_route_id": "55-East^;55-West^;6-North^+;6-South^+", "stop_type": "bus", "parent_stop_id": 1518, "route": "171"}, {"route_id": "171", "route_code": 1, "stop_name": "Shoreland Dorm", "stop_id": 15919, "stop_lat": 41.796174, "stop_lon": -87.581006, "heading_degrees": 213, "transfer_to_route_id": NaN, "stop_type": "bus", "parent_stop_id": 15919, "route": "171"}, {"route_id": "171", "route_code": 1, "stop_name": "University & 55th Street", "stop_id": 15816, "stop_lat": 41.794853, "stop_lon": -87.598125, "heading_degrees": 0, "transfer_to_route_id": "55-East^;55-West^", "stop_type": "bus", "parent_stop_id": 15816, "route": "171"}, {"route_id": "171", "route_code": 1, "stop_name": "University & 57th Street", "stop_id": 16036, "stop_lat": 41.79135, "stop_lon": -87.598078, "heading_degrees": 359, "transfer_to_route_id": NaN, "stop_type": "bus", "parent_stop_id": 16036, "route": "171"}, {"route_id": "171", "route_code": 2, "stop_name": "1111 East 60th Street", "stop_id": 17057, "stop_lat": 41.78593, "stop_lon": -87.598952, "heading_degrees": 90, "transfer_to_route_id": NaN, "stop_type": "bus", "parent_stop_id": 17057, "route": "171"}, {"route_id": "171", "route_code": 2, "stop_name": "55th Street & Dorchester", "stop_id": 10569, "stop_lat": 41.79557, "stop_lon": -87.591593, "heading_degrees": 261, "transfer_to_route_id": NaN, "stop_type": "bus", "parent_stop_id": 10569, "route": "171"}, {"route_id": "171", "route_code": 2, "stop_name": "55th Street & Hyde Park Blvd", "stop_id": 10566, "stop_lat": 41.795307, "stop_lon": -87.58436, "heading_degrees": 267, "transfer_to_route_id": "28-North^;28-South^;55-East^;55-West^;6-North^+;6-South^+", "stop_type": "bus", "parent_stop_id": 10566, "route": "171"}, {"route_id": "171", "route_code": 2, "stop_name": "55th Street & Kenwood", "stop_id": 10570, "stop_lat": 41.795188, "stop_lon": -87.593707, "heading_degrees": 270, "transfer_to_route_id": NaN, "stop_type": "bus", "parent_stop_id": 10570, "route": "171"}, {"route_id": "171", "route_code": 2, "stop_name": "55th Street & Lake Park", "stop_id": 10567, "stop_lat": 41.795307, "stop_lon": -87.588097, "heading_degrees": 268, "transfer_to_route_id": "15-North^;15-South^;28-North^;28-South^", "stop_type": "bus", "parent_stop_id": 10567, "route": "171"}, {"route_id": "171", "route_code": 2, "stop_name": "55th Street & Woodlawn", "stop_id": 10572, "stop_lat": 41.795188, "stop_lon": -87.596393, "heading_degrees": 271, "transfer_to_route_id": "172-North^", "stop_type": "bus", "parent_stop_id": 10572, "route": "171"}, {"route_id": "171", "route_code": 2, "stop_name": "5800 S Ellis", "stop_id": 18012, "stop_lat": 41.789233, "stop_lon": -87.601325, "heading_degrees": 176, "transfer_to_route_id": NaN, "stop_type": "bus", "parent_stop_id": 18012, "route": "171"}, {"route_id": "171", "route_code": 2, "stop_name": "60th Street & Ellis", "stop_id": 14019, "stop_lat": 41.785913, "stop_lon": -87.600763, "heading_degrees": 90, "transfer_to_route_id": "2-North^+;2-South^+", "stop_type": "bus", "parent_stop_id": 14019, "route": "171"}, {"route_id": "171", "route_code": 2, "stop_name": "60th Street & University", "stop_id": 14020, "stop_lat": 41.785914, "stop_lon": -87.59742, "heading_degrees": 116, "transfer_to_route_id": "172-North^;172-South^;2-North^+", "stop_type": "bus", "parent_stop_id": 14020, "route": "171"}, {"route_id": "171", "route_code": 2, "stop_name": "Ellis & 55th Street", "stop_id": 14033, "stop_lat": 41.794718, "stop_lon": -87.601415, "heading_degrees": 180, "transfer_to_route_id": "172-South^;55-East^;55-West^", "stop_type": "bus", "parent_stop_id": 14033, "route": "171"}, {"route_id": "171", "route_code": 2, "stop_name": "Ellis & 57th Street", "stop_id": 14034, "stop_lat": 41.79123, "stop_lon": -87.6014, "heading_degrees": 180, "transfer_to_route_id": NaN, "stop_type": "bus", "parent_stop_id": 14034, "route": "171"}, {"route_id": "171", "route_code": 2, "stop_name": "Ellis & Midway Plaisance", "stop_id": 17846, "stop_lat": 41.78736, "stop_lon": -87.601288, "heading_degrees": 182, "transfer_to_route_id": "192-South^+", "stop_type": "bus", "parent_stop_id": 17846, "route": "171"},